{"name": "莲年有鱼碳烤鱼（牌楼店）", "address": "鼓楼区夹河东街牌楼市场5号楼外20号", "phone": "0516-83609797", "open_time": "周一至周日 11:00-14:00 16:30-21:00", "longitude": 117.187532, "latitude": 34.270273}

{"name": "欢乐思碧客（彭城一号店）", "address": "鼓楼区彭城一号6号楼（洞子火锅楼下）", "phone": "15152111719/13952184216", "open_time": "周一至周日 10:00-21:00", "longitude": 117.187586, "latitude": 34.268986}

{"name": "泰好吃·泰国餐厅", "address": "鼓楼区彭城北路1号1#-3#楼（2#楼三楼）", "phone": "0516-83600899", "open_time": "周一至周日 11:00-14:00 17:00-21:00", "longitude": 117.187995, "latitude": 34.26852}

{"name": "傣妹火锅（中山北路店）", "address": "泉山区中山北路盛佳大厦4层（近富国街）", "phone": "0516-85587658", "open_time": "周一至周日 10:00-23:00", "longitude": 117.185323, "latitude": 34.26482}

{"name": "金诺郎海鲜自助烤肉火锅", "address": "泉山区淮海西路288号段庄广场爱客来超市1楼", "phone": "0516-85855118", "open_time": "周一至周日 11:00-14:30 17:00-21:30", "longitude": 117.156966, "latitude": 34.262256}

{"name": "哆来咪火锅烤肉自助", "address": "鼓楼区夹河东路5号牌楼市场5号楼1818美食广场3楼（从1818大门进入乘电梯到三楼）", "phone": "18136368064", "open_time": "周一至周日 11:30-15:00 17:00-22:00", "longitude": 117.187452, "latitude": 34.270353}

{"name": "巴厘岛海鲜自助", "address": "鼓楼区1818美食广场1楼（澳门豆捞隔壁）", "phone": "0516-87662877", "open_time": "周一至周日 11:30-14:00 15:30-21:00", "longitude": 117.187671, "latitude": 34.270529}

{"name": "韩食刻·芝士火锅", "address": "鼓楼区彭城路彭城一号2号楼3楼（神话KTV楼下3楼）（原泰好吃）", "phone": "0516-83600899", "open_time": "周一至周日 11:00-14:00 17:00-21:00  非营业时段 2018-02-15至2018-02-16 00:00-16:00", "longitude": 117.187848, "latitude": 34.267572}

{"name": "妯娌老鸭粉丝馆（悠沃店）", "address": "鼓楼区中央百大悠沃时尚街区B2楼餐饮区", "phone": "0516-66638229", "open_time": "周一至周日 10:00-20:00", "longitude": 117.186707, "latitude": 34.265088}

{"name": "张记炒货", "address": "建国西路解放桥农贸市场中间", "phone": "15862183014", "open_time": "周一至周日 09:00-21:00  非营业时段 2018-02-16至2018-02-18 全天", "longitude": 117.184373, "latitude": 34.259353}

{"name": "艾尚客自助餐厅", "address": "泉山区解放南路中国大学科技园（老矿大北门正对面，中汇国际会议中心内）", "phone": "0516-87785777", "open_time": "周一至周日 11:30-14:00 17:30-21:00  非营业时段 2018-02-15至2018-02-18 全天", "longitude": 117.199623, "latitude": 34.223693}

{"name": "黄记煌三汁焖锅（云龙万达店）", "address": "云龙区和平大道58号云龙万达广场3层", "phone": "0516-87877088", "open_time": "周一至周日 11:00-23:00", "longitude": 117.24424, "latitude": 34.253829}

{"name": "阿郎山烤肉美食超市", "address": "鼓楼区淮海东路51号中山堂对面（原华联商厦二楼）", "phone": "0516-83700760", "open_time": "周一至周日 11:00-15:00 17:00-22:30  非营业时段 2018-02-15至2018-02-15 全天", "longitude": 117.190403, "latitude": 34.264239}

{"name": "二妮菜煎饼（万达百货店）", "address": "云龙区和平大道58号万达百货万达金街主街1层", "phone": "0516-61660888/15262009576", "open_time": "周一至周日 06:30-22:30", "longitude": 117.245243, "latitude": 34.253033}

{"name": "二妮菜煎饼（新区同昌店）", "address": "铜山新区新区同昌路邮局西30米", "phone": "18796234555", "open_time": "周一至周日 10:00-21:00", "longitude": 117.184495, "latitude": 34.189423}

{"name": "汉丽轩烤肉（福泰隆店）", "address": "沛县汉城路福泰隆东门（原福泰隆宾馆3楼）", "phone": "0516-89888508", "open_time": "周一至周日 午市 10:30-14:00 晚市 16:30-21:00", "longitude": 116.933447, "latitude": 34.73272}

{"name": "欢乐思碧客麻辣香锅（贾汪百大店）", "address": "前委路百大购物广场一楼（靠近南门入口）", "phone": "18061137156", "open_time": "周一至周日 11:00-21:00", "longitude": 117.452112, "latitude": 34.443052}

{"name": "麦咔兹（贾汪百大店）", "address": "将军大街百大超市西门北侧（大明麻辣烫北5米）", "phone": "0516-87900777", "open_time": "周一至周日 08:00-21:30", "longitude": 117.451583, "latitude": 34.444048}

{"name": "牙缝烧烤俱乐部", "address": "文亭街文亭金座8号停车场院内（文亭街钱柜东20米）", "phone": "0516-66997999", "open_time": "周一至周日 17:00-03:00", "longitude": 117.184455, "latitude": 34.261569}

{"name": "映像徐州（滨湖店）", "address": "鼓楼区滨湖新天地二期西街（云龙湖音乐厅向西300米）", "phone": "0516-85715111/85716111", "open_time": "周一至周日 11:30-14:00 17:30-21:00", "longitude": 117.152535, "latitude": 34.246829}

{"name": "刘先生的肉肉（万达百货店）", "address": "云龙区和平大道58号万达百货万达金街D区1层", "phone": "18605163335", "open_time": "周一至周日 09:30-22:00", "longitude": 117.245243, "latitude": 34.253033}

{"name": "艾大米（沃尔玛店）", "address": "解放南路311号正翔商业广场第一层1023铺位", "phone": "18112212590", "open_time": "周一至周日 06:00-23:00", "longitude": 117.19423, "latitude": 34.25032}

{"name": "永康糕点（夹河街店）", "address": "鼓楼区夹河街103号", "phone": "0516-85736583", "open_time": "周一至周日 08:00-20:00", "longitude": 117.179539, "latitude": 34.266745}

{"name": "麦可麦客MOCO MARK（金地店）", "address": "鼓楼区中山北路43号（金地商都正对面）", "phone": "0516-87893998", "open_time": "10:00-22:00", "longitude": 117.1854, "latitude": 34.26822}

{"name": "冠林蛋糕（香城店）", "address": "沛县香城路20-6号", "phone": "0516-89756007", "open_time": "周一至周日 08:00-21:00", "longitude": 116.935261, "latitude": 34.725193}

{"name": "欢乐牧场烧烤涮时尚自助餐厅", "address": "睢宁县八一中路万象天地4楼（台北纯K楼下）", "phone": "0516-88111777", "open_time": "周一至周日 10:30-21:00", "longitude": 117.948802, "latitude": 33.902056}

{"name": "欢乐牧场烧烤涮自助餐厅（万达百货店）", "address": "云龙区和平大道58号万达百货万达金街D区1层", "phone": "0516-82637677", "open_time": "周一至周日 17:30-21:30  非营业时段 2018-02-15至2018-02-15 全天", "longitude": 117.245243, "latitude": 34.253033}

{"name": "东淮西川（万达百货店）", "address": "云龙区和平大道58号万达百货3层", "phone": "0516-87877097", "open_time": "周一至周日 10:30-14:00 16:30-21:00", "longitude": 117.245243, "latitude": 34.253033}

{"name": "欢乐思碧客麻辣香锅（恒盛广场店）", "address": "泉山区建国西路恒盛广场3号楼，中影国际影城楼下，二楼（扶梯右转）", "phone": "17712178191", "open_time": "周一至周日 11:00-14:00 17:00-21:00  非营业时段 2018-02-15至2018-02-15 14:00-24:00", "longitude": 117.160028, "latitude": 34.258998}

{"name": "比格自助比萨（万达百货店）", "address": "云龙区和平大道58号万达百货3层", "phone": "0516-83888887", "open_time": "周一至周日 10:30-21:00  非营业时段 2018-02-15至2018-02-15 全天", "longitude": 117.245243, "latitude": 34.253033}

{"name": "老董家米线（万达百货店）", "address": "云龙区和平大道58号万达百货万达金街D区1层", "phone": "15852187590", "open_time": "", "longitude": 117.245243, "latitude": 34.253033}

{"name": "李先生（戏马台店）", "address": "鼓楼区解放路戏马台", "phone": "13395286651", "open_time": "周一至周日 09:00-22:00", "longitude": 117.192779, "latitude": 34.2547}

********第2页*********http://xz.meituan.com/meishi/pn2/[{'name': '彭祖美味', 'ID': 5647837}, {'name': '金权道韩式自助烤肉火锅', 'ID': 41499601}, {'name': '素香苑素食主题自助餐', 'ID': 40303531}, {'name': '华天自助火锅（东三环快速路店）', 'ID': 4327644}, {'name': '千禧坊（沃尔玛店）', 'ID': 1471014}, {'name': '优乐自助火锅烧烤一体店', 'ID': 41251882}, {'name': '钟记油烫鸭（绿地店）', 'ID': 40665988}, {'name': '大脸鸡排（沛县店）', 'ID': 40616753}, {'name': '多喜屋TAKIYA（富国街店）', 'ID': 51985507}, {'name': '康熙带鱼（沛县店）', 'ID': 41938854}, {'name': '千岛樱时尚自助餐厅（万达百货店）', 'ID': 40667890}, {'name': '9518自助餐', 'ID': 6132967}, {'name': '盱眙小龙虾', 'ID': 42511735}, {'name': '黄记煌三汁焖锅（恒盛广场店）', 'ID': 42583411}, {'name': '小新米线（悠沃街区店）', 'ID': 2734288}, {'name': '蜜忆甜品（金地商都店）', 'ID': 2494575}, {'name': '魔力三千品川式休闲快餐（悠沃店）', 'ID': 6648889}, {'name': '魔力三千品（万达广场店）', 'ID': 40872335}, {'name': '迪欧咖啡（淮海东路店）', 'ID': 935282}, {'name': '正宗台湾脆皮玉米（沛县总店）', 'ID': 50308218}, {'name': 'N多寿司（万达百货店）', 'ID': 6224776}, {'name': '七食年代', 'ID': 19130}, {'name': '韩膳苑·典尚靓汤', 'ID': 1139351}, {'name': '泰好吃芝士年糕火锅（金鹰人民广场店）', 'ID': 42900918}, {'name': '薇寿司', 'ID': 4997125}, {'name': '徐小姐爱地锅（彭城一号店）', 'ID': 5125400}, {'name': '祺味轩潮汕粥（万达百货店）', 'ID': 5547412}, {'name': '大力炒酸奶', 'ID': 6549873}, {'name': '趣多客时尚烤鱼（文亭街店）', 'ID': 4363219}, {'name': '客莱克炸鸡汉堡（汉城路店）', 'ID': 41329597}, {'name': '旺中旺土豆粉·面（云龙万达店）', 'ID': 40068893}, {'name': '堡乐（云龙山师大店）', 'ID': 6824469}]

http://xz.meituan.com/meishi/5647837/

{"name": "彭祖美味", "address": "泉山区富国街眼科医院隔壁巷内", "phone": "15050826978", "open_time": "周一至周日 10:30-21:30", "longitude": 117.184126, "latitude": 34.26656}

http://xz.meituan.com/meishi/41499601/

{"name": "金权道韩式自助烤肉火锅", "address": "丰县解放西路白云楼3层（横店电影城对面）", "phone": "0516-89123333", "open_time": "周一至周日 11:30-14:30", "longitude": 116.596496, "latitude": 34.698347}

http://xz.meituan.com/meishi/40303531/

{"name": "素香苑素食主题自助餐", "address": "泉山区凤鸣路14号（四院南红绿灯向西100米路北随缘阁酒店隔壁）", "phone": "0516-83865696", "open_time": "周一,周日 11:30-14:00 17:30-20:00  非营业时段 2018-02-15至2018-02-17 全天", "longitude": 117.19097, "latitude": 34.23627}

http://xz.meituan.com/meishi/4327644/

{"name": "华天自助火锅（东三环快速路店）", "address": "云龙区东三环快速路华天大酒店1楼", "phone": "0516-82318788", "open_time": "周一至周日 11:30-14:00 15:30-21:00", "longitude": 117.227845, "latitude": 34.243789}

http://xz.meituan.com/meishi/1471014/

{"name": "千禧坊（沃尔玛店）", "address": "解放南路311号", "phone": "0516-83336199", "open_time": "周一至周日 08:00-21:00", "longitude": 117.193373, "latitude": 34.251026}

http://xz.meituan.com/meishi/41251882/

{"name": "优乐自助火锅烧烤一体店", "address": "睢宁县八一中路与中山北路交叉口西南角万象天地三楼", "phone": "0516-88203777", "open_time": "周一至周日 10:00-02:00", "longitude": 117.948566, "latitude": 33.901958}

http://xz.meituan.com/meishi/40665988/

{"name": "钟记油烫鸭（绿地店）", "address": "云龙区民富路绿地基督教堂东100米", "phone": "18795424702", "open_time": "周一至周日 10:00-21:00", "longitude": 117.247286, "latitude": 34.246759}

http://xz.meituan.com/meishi/40616753/

{"name": "大脸鸡排（沛县店）", "address": "沛县汉城路嘉禾手机城北门对面美食一条街", "phone": "18921799568", "open_time": "", "longitude": 116.933587, "latitude": 34.731477}

http://xz.meituan.com/meishi/51985507/

{"name": "多喜屋TAKIYA（富国街店）", "address": "泉山区富国街红绿灯北20米路东", "phone": "0516-66624983/83778025/18052262221", "open_time": "周一至周日 11:30-14:30 17:30-20:30  非营业时段 2018-02-15至2018-02-17 全天", "longitude": 117.18308, "latitude": 34.266982}

http://xz.meituan.com/meishi/41938854/

{"name": "康熙带鱼（沛县店）", "address": "沛县沛城镇女人街福六家六对面", "phone": "17305201010/17798801010", "open_time": "周一至周日 10:00-21:30", "longitude": 116.93392, "latitude": 34.73136}

http://xz.meituan.com/meishi/40667890/

{"name": "千岛樱时尚自助餐厅（万达百货店）", "address": "云龙区和平大道58号万达百货3层", "phone": "0516-87878577", "open_time": "周一至周日 17:00-21:00", "longitude": 117.245243, "latitude": 34.253033}

http://xz.meituan.com/meishi/6132967/

{"name": "9518自助餐", "address": "将军大街前委路路口向北200米路西（烟草公司大楼隔壁）", "phone": "0516-87619518", "open_time": "周一至周日 11:00-14:00 16:30-21:00", "longitude": 117.451078, "latitude": 34.445866}

http://xz.meituan.com/meishi/42511735/

{"name": "盱眙小龙虾", "address": "鼓楼区凤凰书城向西第一个红绿灯向南50米（纪念日百货往南三十米）", "phone": "15862159915/15952316550", "open_time": "周一至周日 10:00-23:30  非营业时段 2018-02-16至2018-03-02 全天", "longitude": 117.183352, "latitude": 34.262955}

http://xz.meituan.com/meishi/42583411/

{"name": "黄记煌三汁焖锅（恒盛广场店）", "address": "泉山区建国西路恒生广场3号楼中影国际影城楼下2层", "phone": "0516-85866999", "open_time": "11:00-14:00,17:00-21:00", "longitude": 117.1595, "latitude": 34.259234}

http://xz.meituan.com/meishi/2734288/

{"name": "小新米线（悠沃街区店）", "address": "鼓楼区悠沃时尚街区负2层（中央百大东地下）", "phone": "0516-83725898", "open_time": "周一至周日 10:00-21:00", "longitude": 117.186176, "latitude": 34.263173}

http://xz.meituan.com/meishi/2494575/

{"name": "蜜忆甜品（金地商都店）", "address": "鼓楼区中山北路金地商都东门隔壁", "phone": "17705221084", "open_time": "周一至周日 10:00-21:30", "longitude": 117.187231, "latitude": 34.268175}

http://xz.meituan.com/meishi/6648889/

{"name": "魔力三千品川式休闲快餐（悠沃店）", "address": "鼓楼区悠沃时尚街区负一层彩虹谷1A01（北广场入口处）", "phone": "18683120152", "open_time": "周一至周日 10:00-21:00", "longitude": 117.187705, "latitude": 34.263289}

http://xz.meituan.com/meishi/40872335/

{"name": "魔力三千品（万达广场店）", "address": "云龙区和平大道58号万达广场西金街D区1层（漫烤鱼南隔壁）", "phone": "17712033807", "open_time": "周一至周日 10:00-21:30", "longitude": 117.24398, "latitude": 34.252639}

http://xz.meituan.com/meishi/935282/

{"name": "迪欧咖啡（淮海东路店）", "address": "鼓楼区淮海东路156号", "phone": "0516-83739777", "open_time": "周一至周日 09:00-22:00  非营业时段 2018-02-15至2018-02-17 全天", "longitude": 117.202973, "latitude": 34.264457}

http://xz.meituan.com/meishi/50308218/

{"name": "正宗台湾脆皮玉米（沛县总店）", "address": "沛县金鹰南门福六家六对过第四家", "phone": "13852129593", "open_time": "周一至周日 09:30-21:30", "longitude": 116.934484, "latitude": 34.731184}

http://xz.meituan.com/meishi/6224776/

{"name": "N多寿司（万达百货店）", "address": "云龙区和平大道58号万达百货万达金街主街1层", "phone": "18652230595", "open_time": "周一至周日 10:30-21:00", "longitude": 117.245243, "latitude": 34.253033}

http://xz.meituan.com/meishi/19130/

{"name": "七食年代", "address": "鼓楼区中山北路43号金地商都正对面", "phone": "0516-87786777", "open_time": "周一至周日 10:30-14:00 17:00-21:00", "longitude": 117.185273, "latitude": 34.268291}

http://xz.meituan.com/meishi/1139351/

{"name": "韩膳苑·典尚靓汤", "address": "风华南路1号富泊湾广场A区（近风华园南门）", "phone": "0516-67661668", "open_time": "周一至周日 11:00-14:00 17:00-21:00", "longitude": 117.188424, "latitude": 34.213351}

http://xz.meituan.com/meishi/42900918/

{"name": "泰好吃芝士年糕火锅（金鹰人民广场店）", "address": "泉山区淮海西路金鹰商场4楼韩宫宴炭火烤肉隔壁", "phone": "0516-85650099", "open_time": "周一至周日 11:00-21:00  非营业时段 2018-02-15至2018-02-16 00:00-16:00", "longitude": 117.162691, "latitude": 34.263588}

http://xz.meituan.com/meishi/4997125/

{"name": "薇寿司", "address": "中国城百宝楼东门对面", "phone": "15050030909", "open_time": "周一至周日 10:30-21:30", "longitude": 117.948567, "latitude": 33.896193}

http://xz.meituan.com/meishi/5125400/

{"name": "徐小姐爱地锅（彭城一号店）", "address": "鼓楼区彭城一号2号楼2层（神话KTV楼下）", "phone": "0516-83717789", "open_time": "周一至周日 11:00-15:00 17:00-21:00", "longitude": 117.187909, "latitude": 34.268067}

http://xz.meituan.com/meishi/5547412/

{"name": "祺味轩潮汕粥（万达百货店）", "address": "云龙区和平大道58号云龙万达广场3层3017号", "phone": "0516-83827766/400-668-9179", "open_time": "周一至周日 10:00-21:00", "longitude": 117.245631, "latitude": 34.25365}

http://xz.meituan.com/meishi/6549873/

{"name": "大力炒酸奶", "address": "泉山区富国街老地方饭店向南100米路东（占记鸭脖南隔壁）", "phone": "15150031938", "open_time": "周一至周日 09:00-21:00", "longitude": 117.183168, "latitude": 34.26474}

http://xz.meituan.com/meishi/4363219/

{"name": "趣多客时尚烤鱼（文亭街店）", "address": "文亭街文亭金座一层8号（两来风西隔壁）", "phone": "0516-85600606", "open_time": "周一至周日 10:00-00:00  非营业时段 2018-02-16至2018-02-16 全天 2018-02-15至2018-02-15 14:00-00:00", "longitude": 117.18481, "latitude": 34.26109}

http://xz.meituan.com/meishi/41329597/

{"name": "客莱克炸鸡汉堡（汉城路店）", "address": "沛县汉城路原老市场东门对面", "phone": "0516-89658024", "open_time": "周一至周日 09:30-21:00", "longitude": 116.935112, "latitude": 34.736072}

http://xz.meituan.com/meishi/40068893/

{"name": "旺中旺土豆粉·面（云龙万达店）", "address": "云龙区和平大道58号万达广场停车场入口对面", "phone": "18796254683", "open_time": "", "longitude": 117.244991, "latitude": 34.254052}

http://xz.meituan.com/meishi/6824469/

{"name": "堡乐（云龙山师大店）", "address": "和平路90号（老师大北门对面）", "phone": "0516-83804816/18626029877", "open_time": "周一至周日 08:30-22:00  非营业时段 2018-02-15至2018-02-20 全天", "longitude": 117.190332, "latitude": 34.250222}

********第3页*********http://xz.meituan.com/meishi/pn3/[{'name': 'Hi Fox Bakery&Coffee', 'ID': 51058954}, {'name': '倾闻小沫炸鸡汉堡（中枢街店）', 'ID': 40916740}, {'name': '老船长泡芙（牌楼店）', 'ID': 4373952}, {'name': '老三房', 'ID': 41809614}, {'name': '柠檬鱼专业酸菜鱼连锁（万达百货店）', 'ID': 51770363}, {'name': '土豆披萨小站（富国街店）', 'ID': 41874908}, {'name': '牵手小火锅', 'ID': 40218953}, {'name': '欢乐思碧客麻辣香锅（海河西路店）', 'ID': 6301374}, {'name': '秦味坊潼关肉夹馍', 'ID': 42902762}, {'name': '彼岸咖啡花园餐厅', 'ID': 2432615}, {'name': '碎蝶音乐咖啡（矿大北门店）', 'ID': 6463024}, {'name': '骨味坊（万达百货店）', 'ID': 5920507}, {'name': '德克士（新安餐厅店）', 'ID': 4722688}, {'name': '丫丫の披萨（绿地店）', 'ID': 4565114}, {'name': '疯狂的鲜椒', 'ID': 4693219}, {'name': '上鼎铁板烧（滨湖店）', 'ID': 1462678}, {'name': '徐州马来榴莲甜品店', 'ID': 4344314}, {'name': '苏牛板面（矿大店）', 'ID': 4022422}, {'name': '单行道休闲餐厅', 'ID': 4777301}, {'name': '熙顺紫菜包饭', 'ID': 40688147}, {'name': '萧县盛惠面皮（文亭街店）', 'ID': 4322328}, {'name': '思必客麻辣香锅（泰隆店）', 'ID': 2382459}, {'name': '卡瑞滋烘焙', 'ID': 41275433}, {'name': '卡瑞滋烘焙（铜山新区店）', 'ID': 52680780}, {'name': '韩膳阁铁板炒饭（悠沃店）', 'ID': 5172010}, {'name': '老董家米线（睢宁总店）', 'ID': 40035988}, {'name': '老船长泡芙（西苑一店）', 'ID': 2482991}, {'name': '康熙带鱼', 'ID': 42040746}, {'name': '思必客麻辣香锅（建筑学院店）', 'ID': 2452938}, {'name': '世纪嘉园时代时尚餐厅', 'ID': 3285631}, {'name': '百碗香排骨米饭（农工商店）', 'ID': 2455103}, {'name': '御善煌三汁焖锅（新沂店）', 'ID': 5513817}]

http://xz.meituan.com/meishi/51058954/

{"name": "Hi Fox Bakery&Coffee", "address": "泉山区解放南路矿业大学对面天助综合楼三楼（解放南路）", "phone": "0516-69927878", "open_time": "周一至周日 09:30-23:00", "longitude": 117.19539, "latitude": 34.22037}

http://xz.meituan.com/meishi/40916740/

{"name": "倾闻小沫炸鸡汉堡（中枢街店）", "address": "鼓楼区中枢南街6号（文亭街与中枢南街交叉口往北50米路东）", "phone": "0516-69919009", "open_time": "周一至周日 10:00-21:30", "longitude": 117.182641, "latitude": 34.262094}

http://xz.meituan.com/meishi/4373952/

{"name": "老船长泡芙（牌楼店）", "address": "鼓楼区民主路61号(树人中学北门西200米)", "phone": "0516-61666135", "open_time": "周一至周日 08:00-22:00  非营业时段 2018-02-16至2018-02-18 15:00-24:00", "longitude": 117.18955, "latitude": 34.269679}

http://xz.meituan.com/meishi/41809614/

{"name": "老三房", "address": "云龙区三环快速路汉韵商务酒店口(楚王陵对面)", "phone": "0516-82518777", "open_time": "周一至周日 11:00-14:00 17:00-21:00", "longitude": 117.22668, "latitude": 34.24301}

http://xz.meituan.com/meishi/51770363/

{"name": "柠檬鱼专业酸菜鱼连锁（万达百货店）", "address": "云龙区和平大道58号万达百货万达金街主街1层", "phone": "0516-66633977", "open_time": "周一至周日 09:30-14:30 16:30-21:30", "longitude": 117.245243, "latitude": 34.253033}

http://xz.meituan.com/meishi/41874908/

{"name": "土豆披萨小站（富国街店）", "address": "鼓楼区富国街与福顺路交叉口西南角（笑笑凉皮西10米）", "phone": "0516-85886660", "open_time": "周一至周日 10:30-21:00", "longitude": 117.18258, "latitude": 34.266126}

http://xz.meituan.com/meishi/40218953/

{"name": "牵手小火锅", "address": "睢宁县中山北路万象天地三楼", "phone": "0516-88018777", "open_time": "周一至周日 10:00-22:00", "longitude": 117.948515, "latitude": 33.902086}

http://xz.meituan.com/meishi/6301374/

{"name": "欢乐思碧客麻辣香锅（海河西路店）", "address": "铜山新区海河西路师范大学南京路步行街北头动感地带营业厅隔壁", "phone": "18912009211", "open_time": "周一至周日 11:00-13:30 17:00-20:30", "longitude": 117.181965, "latitude": 34.194204}

http://xz.meituan.com/meishi/42902762/

{"name": "秦味坊潼关肉夹馍", "address": "复兴北路玛奇朵酒店隔壁（朝阳北500米复兴北路立交桥南侧四道街公交站台对面）", "phone": "0516-69677731", "open_time": "周一至周日 10:00-20:00", "longitude": 117.202954, "latitude": 34.272974}

http://xz.meituan.com/meishi/2432615/

{"name": "彼岸咖啡花园餐厅", "address": "云龙区东三环瑞龙东方广场K楼112室（世贸大润发对面）", "phone": "0516-83664488", "open_time": "周一至周日 09:00-23:00", "longitude": 117.226368, "latitude": 34.244514}

http://xz.meituan.com/meishi/6463024/

{"name": "碎蝶音乐咖啡（矿大北门店）", "address": "泉山区矿大北门北200米音乐广场4号楼", "phone": "0516-66660056", "open_time": "周一至周日 10:00-21:00", "longitude": 117.197791, "latitude": 34.225798}

http://xz.meituan.com/meishi/5920507/

{"name": "骨味坊（万达百货店）", "address": "云龙区和平大道58号万达百货3层", "phone": "0516-87877055", "open_time": "周一至周日 11:00-14:00 17:00-21:30", "longitude": 117.245243, "latitude": 34.253033}

http://xz.meituan.com/meishi/4722688/

{"name": "德克士（新安餐厅店）", "address": "新沂市钟吾路与建邺路交汇处富达苑4号楼108-19室（未来广告对面）", "phone": "0516-88590999", "open_time": "周一至周日 08:00-24:00", "longitude": 118.35181, "latitude": 34.364672}

http://xz.meituan.com/meishi/4565114/

{"name": "丫丫の披萨（绿地店）", "address": "云龙区绿地健美丽人东500米庆丰路站台后高记牛肉汤内（西面荷满堂房产，东面羊肉烩面）", "phone": "0516-83830783/15651353203", "open_time": "周一至周日 09:00-20:30", "longitude": 117.249112, "latitude": 34.246348}

http://xz.meituan.com/meishi/4693219/

{"name": "疯狂的鲜椒", "address": "鼓楼区1818美食广场二楼", "phone": "0516-83619599", "open_time": "周一至周日 11:00-21:20", "longitude": 117.187672, "latitude": 34.270515}

http://xz.meituan.com/meishi/1462678/

{"name": "上鼎铁板烧（滨湖店）", "address": "鼓楼区湖北路滨湖新天地C1区", "phone": "0516-85628666", "open_time": "周一至周日 11:00-14:00 17:30-21:30", "longitude": 117.171368, "latitude": 34.246188}

http://xz.meituan.com/meishi/4344314/

{"name": "徐州马来榴莲甜品店", "address": "黄河西路19号迎宾楼一楼门面（祥海居仙楼隔壁）", "phone": "18136015897", "open_time": "周一至周日 11:00-21:00", "longitude": 117.197007, "latitude": 34.266823}

http://xz.meituan.com/meishi/4022422/

{"name": "苏牛板面（矿大店）", "address": "泉山区矿业大学西门百汇医院向西150米（淮海银行对面）", "phone": "15162161861", "open_time": "周一至周日 09:30-19:30  非营业时段 2018-02-11至2018-02-20 全天", "longitude": 117.191814, "latitude": 34.21942}

http://xz.meituan.com/meishi/4777301/

{"name": "单行道休闲餐厅", "address": "鼓楼区中山北路盛佳大厦5层（市立一院南隔壁、古彭大厦北50米）", "phone": "0516-85833557", "open_time": "周一至周日 11:00-22:00  非营业时段 2018-02-15至2018-02-17 全天", "longitude": 117.185289, "latitude": 34.264913}

http://xz.meituan.com/meishi/40688147/

{"name": "熙顺紫菜包饭", "address": "沛县汉城路嘉禾手机城北门，女人街内第五家", "phone": "15062151669", "open_time": "", "longitude": 116.933748, "latitude": 34.731388}

http://xz.meituan.com/meishi/4322328/

{"name": "萧县盛惠面皮（文亭街店）", "address": "文亭街钻石钱柜西20米大脸鸡排巷口内", "phone": "18361278613", "open_time": "春季、夏季 周一至周日 09:00-20:30  秋季、冬季 周一至周日 10:00-19:30  非营业时段 2018-02-15至2018-02-16 全天", "longitude": 117.183889, "latitude": 34.261424}

http://xz.meituan.com/meishi/2382459/

{"name": "思必客麻辣香锅（泰隆店）", "address": "鼓楼区经济技术开发区泰隆商业街12幢1单元108号", "phone": "15852481198", "open_time": "", "longitude": 117.272941, "latitude": 34.284339}

http://xz.meituan.com/meishi/41275433/

{"name": "卡瑞滋烘焙", "address": "鼓楼区金山桥泰隆商业街152号（泰隆商业广场东行50米）", "phone": "0516-87988183", "open_time": "周一至周日 07:30-23:00", "longitude": 117.275385, "latitude": 34.284419}

http://xz.meituan.com/meishi/52680780/

{"name": "卡瑞滋烘焙（铜山新区店）", "address": "铜山新区南京路步行街南头（海澜之家北侧）", "phone": "0516-83401909", "open_time": "周一至周日 08:30-22:00", "longitude": 117.180874, "latitude": 34.1899}

http://xz.meituan.com/meishi/5172010/

{"name": "韩膳阁铁板炒饭（悠沃店）", "address": "鼓楼区淮海东路悠沃时尚街区负二层2C05（主入口往里第二家）", "phone": "13952158200", "open_time": "周一至周日 10:00-21:00", "longitude": 117.187229, "latitude": 34.263245}

http://xz.meituan.com/meishi/40035988/

{"name": "老董家米线（睢宁总店）", "address": "中国城南门邮局后向西30米", "phone": "15050064711", "open_time": "周一至周日 09:00-21:00", "longitude": 117.95052, "latitude": 33.896352}

http://xz.meituan.com/meishi/2482991/

{"name": "老船长泡芙（西苑一店）", "address": "泉山区西苑东口608站（交通银行旁）", "phone": "0516-85855859", "open_time": "周一至周日 08:00-22:00", "longitude": 117.150858, "latitude": 34.274259}

http://xz.meituan.com/meishi/42040746/

{"name": "康熙带鱼", "address": "邳州市解放路大广场西侧大唐街迪欧咖啡对面", "phone": "18260755071", "open_time": "周一至周日 10:00-22:00", "longitude": 117.970803, "latitude": 34.311701}

http://xz.meituan.com/meishi/2452938/

{"name": "思必客麻辣香锅（建筑学院店）", "address": "铜山新区学苑路20-5号（铜山中学西红绿灯直行20米，师大东门向北红绿灯左拐20米）", "phone": "0516-83658365", "open_time": "周一至周日 09:00-22:00  非营业时段 2018-02-15至2018-02-20 全天", "longitude": 117.18589, "latitude": 34.201403}

http://xz.meituan.com/meishi/3285631/

{"name": "世纪嘉园时代时尚餐厅", "address": "邳州市时代广场（明德中学对面）", "phone": "0516-86623666", "open_time": "06:00-00:00", "longitude": 117.970136, "latitude": 34.330274}

http://xz.meituan.com/meishi/2455103/

{"name": "百碗香排骨米饭（农工商店）", "address": "二环北路堤北农工商超市对面（孙记新生米线）", "phone": "0516-87726290", "open_time": "周一至周日 08:00-20:00", "longitude": 117.202595, "latitude": 34.283704}

http://xz.meituan.com/meishi/5513817/

{"name": "御善煌三汁焖锅（新沂店）", "address": "公园路与大桥路交汇处西北角麦莎KTV量版隔壁", "phone": "0516-69907777", "open_time": "周一至周日 09:00-14:00 17:00-21:00", "longitude": 118.346636, "latitude": 34.359114}

********第4页*********http://xz.meituan.com/meishi/pn4/[{'name': '香辣花蛤（富国街店）', 'ID': 4989181}, {'name': '金鹏快餐', 'ID': 2462318}, {'name': '大粮仓酒店', 'ID': 41098657}, {'name': '纽约克披萨（星辉店）', 'ID': 2497336}, {'name': '川湘一号创意时尚小火锅', 'ID': 5368159}, {'name': '汉崇山自助烤肉火锅美食超市', 'ID': 6160817}, {'name': '意宇烧烤', 'ID': 4843909}, {'name': '湘西土匪鱼（苗家鱼馆店）', 'ID': 4703639}, {'name': '正宗黄焖鸡米饭（泰隆店）', 'ID': 5596107}, {'name': '溢品香黄焖鸡米饭●麻辣烫', 'ID': 6928897}, {'name': '马洪亮麻辣烫（三十七中店）', 'ID': 40305114}, {'name': '万福园（西安北路店）', 'ID': 4065195}, {'name': '么么哒外卖蛋糕（矿大店）', 'ID': 4126518}, {'name': 'N多寿司（睢宁旗舰店）', 'ID': 6026215}, {'name': '云泉山庄', 'ID': 2076328}, {'name': '姚太太（苹果新天地店）', 'ID': 5659637}, {'name': '思必客麻辣香锅（明德学校店）', 'ID': 6517940}, {'name': '黄记煌三汁焖锅（1818广场店）', 'ID': 91854}, {'name': '思必客麻辣香锅（大唐街店）', 'ID': 2375376}, {'name': '棒棒烤鱼（矿大店）', 'ID': 40203461}, {'name': '韩国炸鸡餐厅', 'ID': 42771048}, {'name': 'N多寿司（淮海西路店）', 'ID': 40368937}, {'name': '乡旮旯野味土菜馆', 'ID': 1508824}, {'name': '徐家铺子良心食品（中山北路店）', 'ID': 40121981}, {'name': '麦肯基（万福街店）', 'ID': 6071062}, {'name': '汉兴中式营养快餐连锁', 'ID': 4164192}, {'name': 'e番寿司', 'ID': 42366620}, {'name': '纳奇披萨', 'ID': 5957931}, {'name': '塞咔蛋糕', 'ID': 1434819}, {'name': '提拉米酥', 'ID': 6221973}, {'name': '韩军城新食器烤肉', 'ID': 6537648}, {'name': '小蓝天温州风味早点部', 'ID': 4410790}]

http://xz.meituan.com/meishi/4989181/

{"name": "香辣花蛤（富国街店）", "address": "鼓楼区少华街军分区招待所西十米脆皮菜煎饼（女人街）", "phone": "18012406506", "open_time": "周一至周日 09:00-20:00", "longitude": 117.181723, "latitude": 34.264461}

http://xz.meituan.com/meishi/2462318/

{"name": "金鹏快餐", "address": "邳州市镇北二路农村银行东20米", "phone": "0516-86999488", "open_time": "周一至周日 10:00-22:30", "longitude": 117.967643, "latitude": 34.32416}

http://xz.meituan.com/meishi/41098657/

{"name": "大粮仓酒店", "address": "邳州市华山路原三连小学南行100米", "phone": "0516-86610606/86610808", "open_time": "周一至周日 08:30-21:30", "longitude": 117.951912, "latitude": 34.325444}

http://xz.meituan.com/meishi/2497336/

{"name": "纽约克披萨（星辉店）", "address": "鼓楼区响山路与大庆路交叉口鼎新广场1楼（星辉电影院斜对面）", "phone": "0516-85831234", "open_time": "周一至周日 10:00-21:30  非营业时段 2018-02-15至2018-02-17 全天", "longitude": 117.210631, "latitude": 34.273533}

http://xz.meituan.com/meishi/5368159/

{"name": "川湘一号创意时尚小火锅", "address": "睢宁县天虹大道4号", "phone": "0516-88263777", "open_time": "", "longitude": 117.961439, "latitude": 33.898746}

http://xz.meituan.com/meishi/6160817/

{"name": "汉崇山自助烤肉火锅美食超市", "address": "新沂市新安镇永利步行街莱迪广场三楼（温州商城对面）", "phone": "0516-66611222", "open_time": "周一至周日 11:30-14:30 17:30-22:00", "longitude": 118.352035, "latitude": 34.375894}

http://xz.meituan.com/meishi/4843909/

{"name": "意宇烧烤", "address": "泉山区华润花园南门斜对面（交通驾校西隔壁，老堤北米线隔壁）", "phone": "13685164415", "open_time": "周一至周日 18:00-02:00", "longitude": 117.154096, "latitude": 34.274147}

http://xz.meituan.com/meishi/4703639/

{"name": "湘西土匪鱼（苗家鱼馆店）", "address": "铜山新区上海路41号（邮电局南100米路西，水晶宫KTV对面）", "phone": "0516-83539599", "open_time": "", "longitude": 117.184868, "latitude": 34.187797}

http://xz.meituan.com/meishi/5596107/

{"name": "正宗黄焖鸡米饭（泰隆店）", "address": "鼓楼区泰隆商业街159号（贺福康蛋糕旁）", "phone": "15852188187", "open_time": "周一至周日 09:00-21:00", "longitude": 117.275911, "latitude": 34.284744}

http://xz.meituan.com/meishi/6928897/

{"name": "溢品香黄焖鸡米饭●麻辣烫", "address": "祥和路祥和大酒店向东100米", "phone": "15852187501/15852187502", "open_time": "周一至周日 09:00-23:00", "longitude": 117.199546, "latitude": 34.290832}

http://xz.meituan.com/meishi/40305114/

{"name": "马洪亮麻辣烫（三十七中店）", "address": "鼓楼区煤建路梅苑小区1栋9号门面（三十七中南门斜对面）", "phone": "18361209880", "open_time": "周一至周日 09:00-18:00", "longitude": 117.166519, "latitude": 34.255639}

http://xz.meituan.com/meishi/4065195/

{"name": "万福园（西安北路店）", "address": "西安北路68号", "phone": "0516-85830268", "open_time": "周一至周日 11:30-14:00 17:00-21:00", "longitude": 117.176428, "latitude": 34.27393}

http://xz.meituan.com/meishi/4126518/

{"name": "么么哒外卖蛋糕（矿大店）", "address": "风华南路风华南苑11号楼", "phone": "18552477266", "open_time": "周一至周日 10:00-20:00", "longitude": 117.187621, "latitude": 34.207354}

http://xz.meituan.com/meishi/6026215/

{"name": "N多寿司（睢宁旗舰店）", "address": "睢城镇中国城内百宝楼东门南侧10米", "phone": "15852130975", "open_time": "周一至周日 09:00-22:00", "longitude": 117.950301, "latitude": 33.897731}

http://xz.meituan.com/meishi/2076328/

{"name": "云泉山庄", "address": "泉山区金山东路18号", "phone": "0516-87789999-6604", "open_time": "周一至周日 全天  非营业时段 2018-02-15至2018-02-18 全天", "longitude": 117.16992, "latitude": 34.224663}

http://xz.meituan.com/meishi/5659637/

{"name": "姚太太（苹果新天地店）", "address": "鼓楼区荆马河南路苹果汇邻湾广场", "phone": "0516-83692261", "open_time": "周一至周日 08:00-21:00", "longitude": 117.207459, "latitude": 34.301417}

http://xz.meituan.com/meishi/6517940/

{"name": "思必客麻辣香锅（明德学校店）", "address": "邳州市世纪大道八马茶业东10米（明德学校对面）", "phone": "0516-86336607", "open_time": "", "longitude": 117.970781, "latitude": 34.330117}

http://xz.meituan.com/meishi/91854/

{"name": "黄记煌三汁焖锅（1818广场店）", "address": "鼓楼区夹河东街1818美食广场", "phone": "0516-87788999", "open_time": "周一至周日 10:00-14:00 17:00-21:00", "longitude": 117.187818, "latitude": 34.270483}

http://xz.meituan.com/meishi/2375376/

{"name": "思必客麻辣香锅（大唐街店）", "address": "邳州市解放西路大唐街B幢（如家宾馆西50米）", "phone": "0516-66687107", "open_time": "周一至周日 10:30-22:00", "longitude": 117.968202, "latitude": 34.311717}

http://xz.meituan.com/meishi/40203461/

{"name": "棒棒烤鱼（矿大店）", "address": "泉山区矿大西门北500米苏宁电器南隔壁", "phone": "0516-87785000/13815361666", "open_time": "周一至周日 09:00-22:00", "longitude": 117.19615, "latitude": 34.221523}

http://xz.meituan.com/meishi/42771048/

{"name": "韩国炸鸡餐厅", "address": "沛县老苏果东门真爱电动车往东58米（玻璃美人美发西侧）", "phone": "18052168858", "open_time": "周一至周日 10:00-20:30", "longitude": 116.936312, "latitude": 34.732512}

http://xz.meituan.com/meishi/40368937/

{"name": "N多寿司（淮海西路店）", "address": "鼓楼区淮海西路金陵金源大酒店西50米（教堂隔壁）", "phone": "15261659636", "open_time": "周一至周日 09:00-21:30", "longitude": 117.180008, "latitude": 34.26342}

http://xz.meituan.com/meishi/1508824/

{"name": "乡旮旯野味土菜馆", "address": "西苑中路民安园西门对面", "phone": "0516-85559985", "open_time": "周一至周日 11:00-14:00 17:30-21:00", "longitude": 117.145524, "latitude": 34.270314}

http://xz.meituan.com/meishi/40121981/

{"name": "徐家铺子良心食品（中山北路店）", "address": "鼓楼区中山北路43号（七十年代隔壁）", "phone": "13645669688", "open_time": "周一至周日 09:00-21:00", "longitude": 117.185334, "latitude": 34.268138}

http://xz.meituan.com/meishi/6071062/

{"name": "麦肯基（万福街店）", "address": "鼓楼区和平西街苏堤北路天山绿洲万福广场内", "phone": "400-926-8166", "open_time": "", "longitude": 117.16874, "latitude": 34.266828}

http://xz.meituan.com/meishi/4164192/

{"name": "汉兴中式营养快餐连锁", "address": "泉山区解放南路中国矿业大学西门北隔壁(矿大新街)", "phone": "0516-83889788", "open_time": "每天 11:00-20:00", "longitude": 117.195998, "latitude": 34.221942}

http://xz.meituan.com/meishi/42366620/

{"name": "e番寿司", "address": "新沂市南京路温州商城北门小吃一条街30号（刘记重庆麻辣烫斜对面）", "phone": "18361572479", "open_time": "周一至周日 10:00-21:30", "longitude": 118.353539, "latitude": 34.376549}

http://xz.meituan.com/meishi/5957931/

{"name": "纳奇披萨", "address": "南睢中小吃街对面书香苑小区门口", "phone": "0516-88345118", "open_time": "周一至周日 09:00-21:00", "longitude": 117.956073, "latitude": 33.894988}

http://xz.meituan.com/meishi/1434819/

{"name": "塞咔蛋糕", "address": "王陵路86号（开发大厦对面）", "phone": "0516-85797127/18205206287", "open_time": "周一至周日 09:00-21:00", "longitude": 117.184589, "latitude": 34.256593}

http://xz.meituan.com/meishi/6221973/

{"name": "提拉米酥", "address": "沛县东风路实验小学操场对面", "phone": "0516-81218088", "open_time": "", "longitude": 116.940266, "latitude": 34.733724}

http://xz.meituan.com/meishi/6537648/

{"name": "韩军城新食器烤肉", "address": "新沂市幸福路南2幢9-2号房（石婆婆家常菜正对面）", "phone": "0516-88981527/18652171517", "open_time": "周一至周日 11:00-22:00", "longitude": 118.350972, "latitude": 34.367476}

http://xz.meituan.com/meishi/4410790/

{"name": "小蓝天温州风味早点部", "address": "鼓楼区夹河东街和中山北路交叉口路北（1818美食广场斜对面、秦妈火锅旁边）", "phone": "13775983706", "open_time": "周一至周日 06:00-23:30", "longitude": 117.18619, "latitude": 34.270499}

********第5页*********http://xz.meituan.com/meishi/pn5/[{'name': '瑶瑶冰淇淋', 'ID': 2464669}, {'name': '康熙带鱼（金地店）', 'ID': 4491626}, {'name': '老船长泡芙升级店（蟠桃店）', 'ID': 2376432}, {'name': '来比福牛排', 'ID': 42865771}, {'name': '萨洛客披萨店', 'ID': 5169036}, {'name': '红海椒●富贵延年酒店（西苑店）', 'ID': 1492838}, {'name': '筷子江湖武侠主题餐厅（矿大店）', 'ID': 4265294}, {'name': '佬俵食品（一店）', 'ID': 40331578}, {'name': '维多利亚西饼屋（建邺路店）', 'ID': 4504670}, {'name': '要德自助火锅（新沂店）', 'ID': 6901600}, {'name': '豪大大香鸡排', 'ID': 935637}, {'name': '那些年（嘉禾店）', 'ID': 40798977}, {'name': '巫山烤全鱼·鸡公煲', 'ID': 41354128}, {'name': '状元米线（百意店）', 'ID': 6675623}, {'name': '夹拣成厨麻辣烫菜煎饼', 'ID': 4007204}, {'name': '一品香蛋糕（旗舰店）', 'ID': 5103625}, {'name': '华莱士（煤港路店）', 'ID': 2549255}, {'name': '老滋味滕州菜煎饼（宏大店）', 'ID': 2526463}, {'name': '小田田（风华园店）', 'ID': 44420}, {'name': '台湾苏氏牛排', 'ID': 42318729}, {'name': '爱的披萨（祥和店）', 'ID': 4058560}, {'name': '来一锅干锅羊羯子（西关店）', 'ID': 2393755}, {'name': '二妮菜煎饼（中枢街店）', 'ID': 6923844}, {'name': '红海椒富贵延年', 'ID': 2427640}, {'name': '亚诺咖啡（南京路店）', 'ID': 5442612}, {'name': '萧县木子面皮', 'ID': 42217761}, {'name': '怪味鸭脖', 'ID': 5655468}, {'name': '三友亭石锅拌饭（步行街店）', 'ID': 6145291}, {'name': 'GT吉缇小憩（万象天地店）', 'ID': 41971659}, {'name': '迪欧咖啡（青年中路店）', 'ID': 6561501}, {'name': '老二队酒店', 'ID': 1470999}, {'name': '巴乐氏鲜奶烘焙（沛县总店）', 'ID': 42109262}]

http://xz.meituan.com/meishi/2464669/

{"name": "瑶瑶冰淇淋", "address": "铜山新区南京路步行街103号路西中段偏南（国税局北200米）", "phone": "15252022005", "open_time": "周一至周日 10:00-22:00", "longitude": 117.18096, "latitude": 34.191309}

http://xz.meituan.com/meishi/4491626/

{"name": "康熙带鱼（金地店）", "address": "鼓楼区洪学巷金地百货东门旁", "phone": "13952111565/15805213864", "open_time": "周一至周日 10:30-19:30", "longitude": 117.187284, "latitude": 34.26784}

http://xz.meituan.com/meishi/2376432/

{"name": "老船长泡芙升级店（蟠桃店）", "address": "鼓楼区金山桥蟠桃花园泰隆商业街1-29号", "phone": "0516-87791881", "open_time": "周一至周日 08:00-22:00", "longitude": 117.274846, "latitude": 34.284695}

http://xz.meituan.com/meishi/42865771/

{"name": "来比福牛排", "address": "新沂市幸福路东首（绅士钱柜ktv南侧向西50米）", "phone": "0516-88993887/15062065599", "open_time": "周一至周日 10:30-21:00", "longitude": 118.350758, "latitude": 34.367523}

http://xz.meituan.com/meishi/5169036/

{"name": "萨洛客披萨店", "address": "邳州市民主路76号", "phone": "15996853880", "open_time": "周一至周日 10:30-20:30", "longitude": 117.969895, "latitude": 34.30863}

http://xz.meituan.com/meishi/1492838/

{"name": "红海椒●富贵延年酒店（西苑店）", "address": "鼓楼区西苑中路民和园东门北隔壁", "phone": "0516-85851181", "open_time": "周一至周日 09:30-21:00", "longitude": 117.14568, "latitude": 34.269539}

http://xz.meituan.com/meishi/4265294/

{"name": "筷子江湖武侠主题餐厅（矿大店）", "address": "泉山区老矿大西门向西50米（百珍堂特产旁边巷内10米）", "phone": "0516-83898813", "open_time": "周一至周日 10:00-22:00", "longitude": 117.194168, "latitude": 34.219296}

http://xz.meituan.com/meishi/40331578/

{"name": "佬俵食品（一店）", "address": "二院东200米路南（芭莎贝儿儿童摄影旁）", "phone": "13585389527", "open_time": "周一至周日 08:00-20:00", "longitude": 117.455273, "latitude": 34.441585}

http://xz.meituan.com/meishi/4504670/

{"name": "维多利亚西饼屋（建邺路店）", "address": "新沂市建业中路路南侧（天马小区门面房）", "phone": "0516-88068777", "open_time": "", "longitude": 118.34888, "latitude": 34.364367}

http://xz.meituan.com/meishi/6901600/

{"name": "要德自助火锅（新沂店）", "address": "新沂市南京路永利步行街向内20米电梯口上去3楼", "phone": "0516-88066877", "open_time": "周一至周日 10:30-22:30", "longitude": 118.351896, "latitude": 34.376448}

http://xz.meituan.com/meishi/935637/

{"name": "豪大大香鸡排", "address": "鼓楼区环城路鼓楼小学对面", "phone": "15050826620", "open_time": "周一至周日 08:00-21:00", "longitude": 117.193815, "latitude": 34.274563}

http://xz.meituan.com/meishi/40798977/

{"name": "那些年（嘉禾店）", "address": "沛县嘉禾手机城北门（女人街西头路南）", "phone": "18652206586", "open_time": "周一至周日 09:00-21:00", "longitude": 116.93362, "latitude": 34.731418}

http://xz.meituan.com/meishi/41354128/

{"name": "巫山烤全鱼·鸡公煲", "address": "睢宁县八一中路万象天地三楼306号（人民医院对面）", "phone": "0516-88343111", "open_time": "周一至周日 10:00-21:30", "longitude": 117.949035, "latitude": 33.902018}

http://xz.meituan.com/meishi/6675623/

{"name": "状元米线（百意店）", "address": "丰县支农路招商场百意超市西门北侧二楼", "phone": "17724583685", "open_time": "周一至周日 09:00-22:00  非营业时段 2018-02-17至2018-02-18 00:00-04:00", "longitude": 116.608746, "latitude": 34.694757}

http://xz.meituan.com/meishi/4007204/

{"name": "夹拣成厨麻辣烫菜煎饼", "address": "云龙区庆丰路城市广场B105号铺（卜蜂莲花超市对过）", "phone": "18796339475", "open_time": "周二,周三 12:00-14:00 19:00-21:00  周五,周六 12:00-14:00 19:00-22:30  周一 00:00-14:00  周四 12:00-14:00 19:00-21:30", "longitude": 117.249354, "latitude": 34.249695}

http://xz.meituan.com/meishi/5103625/

{"name": "一品香蛋糕（旗舰店）", "address": "新沂市富民路83号（零点快餐隔壁）", "phone": "0516-88987998", "open_time": "春季、秋季、冬季 周一至周日 08:00-21:00  夏季 周一至周日 08:00-21:30", "longitude": 118.353345, "latitude": 34.37235}

http://xz.meituan.com/meishi/2549255/

{"name": "华莱士（煤港路店）", "address": "煤港路欢乐谷大剧院隔壁（朱庄社区居委会对面）", "phone": "15950692026", "open_time": "周一至周日 08:00-23:00", "longitude": 117.201057, "latitude": 34.28828}

http://xz.meituan.com/meishi/2526463/

{"name": "老滋味滕州菜煎饼（宏大店）", "address": "宏大财富中心土山草鸡馆巷内向南100米", "phone": "13270280222", "open_time": "周一至周日 08:30-19:30", "longitude": 117.96047, "latitude": 34.311272}

http://xz.meituan.com/meishi/44420/

{"name": "小田田（风华园店）", "address": "三环南路风华园南门内20米", "phone": "0516-83898978", "open_time": "周一至周日 09:00-20:00", "longitude": 117.186995, "latitude": 34.214766}

http://xz.meituan.com/meishi/42318729/

{"name": "台湾苏氏牛排", "address": "铜山新区师大步行街北头路东194号", "phone": "15162249001", "open_time": "周一至周日 10:00-21:30  非营业时段 2018-02-06至2018-02-27 全天", "longitude": 117.181826, "latitude": 34.193844}

http://xz.meituan.com/meishi/4058560/

{"name": "爱的披萨（祥和店）", "address": "祥和大酒店东隔壁祥和路口", "phone": "15190671006", "open_time": "", "longitude": 117.199794, "latitude": 34.291483}

http://xz.meituan.com/meishi/2393755/

{"name": "来一锅干锅羊羯子（西关店）", "address": "泉山区淮海西路与纺织东路交叉口南行50米路东", "phone": "0516-85855884", "open_time": "周一至周日 11:00-14:00 17:00-21:30", "longitude": 117.161398, "latitude": 34.262632}

http://xz.meituan.com/meishi/6923844/

{"name": "二妮菜煎饼（中枢街店）", "address": "泉山区文亭街与中枢街交叉口南100米路东（窝窝头对面）", "phone": "18118520218", "open_time": "周一至周日 07:30-21:30", "longitude": 117.182816, "latitude": 34.260229}

http://xz.meituan.com/meishi/2427640/

{"name": "红海椒富贵延年", "address": "云龙区汉景大道与备战路交汇口西北角", "phone": "0516-83468688", "open_time": "周一至周日 11:00-21:00", "longitude": 117.230443, "latitude": 34.247382}

http://xz.meituan.com/meishi/5442612/

{"name": "亚诺咖啡（南京路店）", "address": "新沂市南京路18号", "phone": "0516-81669999", "open_time": "", "longitude": 118.351467, "latitude": 34.377095}

http://xz.meituan.com/meishi/42217761/

{"name": "萧县木子面皮", "address": "铜山新区铜山新区南京路步行街", "phone": "15052012892", "open_time": "周一至周日 10:00-21:00", "longitude": 117.18083, "latitude": 34.19025}

http://xz.meituan.com/meishi/5655468/

{"name": "怪味鸭脖", "address": "邳州市宏大人民医院对面宏大入口处", "phone": "18136353565/18852240839", "open_time": "周一至周日 09:00-21:30", "longitude": 117.9608, "latitude": 34.30993}

http://xz.meituan.com/meishi/6145291/

{"name": "三友亭石锅拌饭（步行街店）", "address": "铜山新区南京路步行街180-2号西（富皇家纺南侧）", "phone": "15252057429", "open_time": "周一至周日 10:00-21:00", "longitude": 117.181628, "latitude": 34.192903}

http://xz.meituan.com/meishi/41971659/

{"name": "GT吉缇小憩（万象天地店）", "address": "睢宁县万象天地三楼（80後小厨对面）", "phone": "15252161701", "open_time": "", "longitude": 117.948445, "latitude": 33.901698}

http://xz.meituan.com/meishi/6561501/

{"name": "迪欧咖啡（青年中路店）", "address": "睢宁县青年中路徐沙河新天地（金橡影城东侧）", "phone": "0516-88101999", "open_time": "周一至周日 11:00-23:00", "longitude": 117.952723, "latitude": 33.887034}

http://xz.meituan.com/meishi/1470999/

{"name": "老二队酒店", "address": "煤港路东二巷1号", "phone": "0516-87826222", "open_time": "周一至周日 11:00-14:00 17:00-21:00", "longitude": 117.197317, "latitude": 34.28066}

http://xz.meituan.com/meishi/42109262/

{"name": "巴乐氏鲜奶烘焙（沛县总店）", "address": "沛县新沛路与香城南路交叉口东南角（五中西288米）", "phone": "0516-89692999/18251632983", "open_time": "周一至周日 07:00-21:30", "longitude": 116.935006, "latitude": 34.717348}

********第6页*********http://xz.meituan.com/meishi/pn6/[{'name': '麦乐仕', 'ID': 42951216}, {'name': '香港热爱手信蛋糕（幸福路工厂店）', 'ID': 4690452}, {'name': '吐司超人（万达百货店）', 'ID': 51583343}, {'name': '迈德思客（龙固店）', 'ID': 5307543}, {'name': '鸿玉福黄焖鸡米饭（万达百货店）', 'ID': 42636932}, {'name': '爵士岛餐厅', 'ID': 4513128}, {'name': '维c部落鲜榨果汁（悠沃店）', 'ID': 6083649}, {'name': '杨铭宇黄焖鸡米饭（四中总店）', 'ID': 4472755}, {'name': '华莱士（人民路店）', 'ID': 5809341}, {'name': '溢品香黄焖鸡米饭（贾汪店）', 'ID': 42180677}, {'name': '義利德老北京涮羊肉', 'ID': 4537234}, {'name': '张亮麻辣烫（矿大店）', 'ID': 52680418}, {'name': '金菠萝', 'ID': 2411923}, {'name': '妯娌老鸭粉丝汤', 'ID': 41271538}, {'name': '黄金鸡', 'ID': 42334106}, {'name': '正点脆皮玉米（师大店）', 'ID': 42421475}, {'name': '天力西饼（支农路店）', 'ID': 6901805}, {'name': '金鹏印象', 'ID': 42213551}, {'name': '仙芋记', 'ID': 2443280}, {'name': '沪上阿姨（时尚大道分店）', 'ID': 40195778}, {'name': '维利康西饼屋', 'ID': 50511438}, {'name': '提拉米苏', 'ID': 2527998}, {'name': '笑笑凉皮', 'ID': 42364481}, {'name': '麦嘉基汉堡店', 'ID': 1535574}, {'name': '两岸咖啡（贾汪店）', 'ID': 5038095}, {'name': '老船长泡芙（湖滨一小店）', 'ID': 6882671}, {'name': '遇见咖啡', 'ID': 40371299}, {'name': '欢乐牧场烧烤涮自助餐厅', 'ID': 40856485}, {'name': '溢品香黄焖鸡米饭', 'ID': 52911183}, {'name': '米斯韦尔西饼屋', 'ID': 52988705}, {'name': '老船长泡芙（绿地店）', 'ID': 4966146}, {'name': '艾堡汉堡', 'ID': 4737715}]

http://xz.meituan.com/meishi/42951216/

{"name": "麦乐仕", "address": "新沂市建邺东路与文明巷交叉口西北角（原亨利大酒店）", "phone": "0516-88888881", "open_time": "", "longitude": 118.355884, "latitude": 34.364191}

http://xz.meituan.com/meishi/4690452/

{"name": "香港热爱手信蛋糕（幸福路工厂店）", "address": "新沂市幸福路72号", "phone": "0516-81601666/88767777", "open_time": "周一至周日 09:00-21:00", "longitude": 118.34914, "latitude": 34.367567}

http://xz.meituan.com/meishi/51583343/

{"name": "吐司超人（万达百货店）", "address": "云龙区和平大道58号万达百货万达金街D区1层", "phone": "13615101823", "open_time": "周一至周日 10:00-20:00", "longitude": 117.245243, "latitude": 34.253033}

http://xz.meituan.com/meishi/5307543/

{"name": "迈德思客（龙固店）", "address": "沛县龙固镇飞龙大街与民富路北80米路东（美特斯邦威/雅迪电动车旁）", "phone": "0516-89928567", "open_time": "周一至周日 09:00-21:00", "longitude": 116.80793, "latitude": 34.908773}

http://xz.meituan.com/meishi/42636932/

{"name": "鸿玉福黄焖鸡米饭（万达百货店）", "address": "云龙区和平大道58号万达百货万达金街主街1层", "phone": "15005215357", "open_time": "周一至周日 10:00-20:00", "longitude": 117.245243, "latitude": 34.253033}

http://xz.meituan.com/meishi/4513128/

{"name": "爵士岛餐厅", "address": "睢宁县濉河路中段，银河星城南侧（东方医院北100米，睢城镇政府隔壁）", "phone": "0516-88447666/88456788", "open_time": "", "longitude": 117.936088, "latitude": 33.903803}

http://xz.meituan.com/meishi/6083649/

{"name": "维c部落鲜榨果汁（悠沃店）", "address": "鼓楼区悠沃时尚街区负二层餐饮区麻辣烫背面2D20商铺", "phone": "13952239195", "open_time": "周一至周日 09:00-21:00", "longitude": 117.187412, "latitude": 34.263268}

http://xz.meituan.com/meishi/4472755/

{"name": "杨铭宇黄焖鸡米饭（四中总店）", "address": "邳州市锦江西路四中东斜对面30米（吉祥馄饨西20米）", "phone": "18086782330", "open_time": "周一至周日 09:30-20:30", "longitude": 117.964522, "latitude": 34.3275}

http://xz.meituan.com/meishi/5809341/

{"name": "华莱士（人民路店）", "address": "丰县人民路招商场北门对过", "phone": "0516-89105577", "open_time": "周一至周日 09:00-22:00  非营业时段 2018-02-15至2018-02-18 全天", "longitude": 116.609938, "latitude": 34.695515}

http://xz.meituan.com/meishi/42180677/

{"name": "溢品香黄焖鸡米饭（贾汪店）", "address": "将军大街贾汪百大购物广场南门路对过", "phone": "18652282538", "open_time": "周一至周日 10:00-21:00", "longitude": 117.452128, "latitude": 34.442684}

http://xz.meituan.com/meishi/4537234/

{"name": "義利德老北京涮羊肉", "address": "鼓楼区苏堤北路万福街向里50米", "phone": "0516-85957909", "open_time": "周一至周日 11:00-21:30", "longitude": 117.16697, "latitude": 34.267547}

http://xz.meituan.com/meishi/52680418/

{"name": "张亮麻辣烫（矿大店）", "address": "泉山区矿业大学西门对面往西30米路北", "phone": "18020582778", "open_time": "周一至周日 10:00-22:00", "longitude": 117.194817, "latitude": 34.219641}

http://xz.meituan.com/meishi/2411923/

{"name": "金菠萝", "address": "解放西路与建设南路交叉路口（国美电器隔壁）", "phone": "18118585060", "open_time": "周一至周日 08:30-23:00", "longitude": 117.961094, "latitude": 34.314447}

http://xz.meituan.com/meishi/41271538/

{"name": "妯娌老鸭粉丝汤", "address": "新沂市雨润广场美食区", "phone": "18652231090", "open_time": "", "longitude": 118.352615, "latitude": 34.373395}

http://xz.meituan.com/meishi/42334106/

{"name": "黄金鸡", "address": "邳州市青年东路运中初中部东80米（农业银行对面）", "phone": "0516-86125999", "open_time": "周一至周日 09:00-22:00", "longitude": 117.968428, "latitude": 34.30582}

http://xz.meituan.com/meishi/42421475/

{"name": "正点脆皮玉米（师大店）", "address": "铜山新区南京路步行街稻草人旁", "phone": "18261488705", "open_time": "周一至周日 14:30-22:00", "longitude": 117.181048, "latitude": 34.191733}

http://xz.meituan.com/meishi/6901805/

{"name": "天力西饼（支农路店）", "address": "支农南路星海天大酒店对面路东", "phone": "0516-89208371", "open_time": "周一至周日 07:00-22:00", "longitude": 116.608919, "latitude": 34.691376}

http://xz.meituan.com/meishi/42213551/

{"name": "金鹏印象", "address": "建设南路与青年路交叉口南50米路西（新华书店南侧）", "phone": "0516-86623777", "open_time": "周一至周日 08:30-14:00 16:00-21:00", "longitude": 117.958305, "latitude": 34.310049}

http://xz.meituan.com/meishi/2443280/

{"name": "仙芋记", "address": "铜山新区新区南京路步行街178号（小吃街入口处）", "phone": "15895274196/15852466967", "open_time": "周一至周日 09:00-21:00  非营业时段 2018-02-13至2018-02-21 全天", "longitude": 117.181383, "latitude": 34.192281}

http://xz.meituan.com/meishi/40195778/

{"name": "沪上阿姨（时尚大道分店）", "address": "鼓楼区淮海西路中心时尚大道下层式广场", "phone": "18952720166", "open_time": "", "longitude": 117.1861, "latitude": 34.264198}

http://xz.meituan.com/meishi/50511438/

{"name": "维利康西饼屋", "address": "睢宁县万象天地1楼肯德基隔壁", "phone": "0516-88345253", "open_time": "周一至周日 09:00-20:00", "longitude": 117.947629, "latitude": 33.90218}

http://xz.meituan.com/meishi/2527998/

{"name": "提拉米苏", "address": "青年东路运中高中部大门对面（职中小区大门隔壁）", "phone": "0516-86229770", "open_time": "周一至周日 09:30-21:00", "longitude": 117.97818, "latitude": 34.30171}

http://xz.meituan.com/meishi/42364481/

{"name": "笑笑凉皮", "address": "丰县华地街华润苏果超市北60米", "phone": "13905228136", "open_time": "非营业时段 2018-02-16至2018-02-17 00:00-04:00", "longitude": 116.60541, "latitude": 34.696064}

http://xz.meituan.com/meishi/1535574/

{"name": "麦嘉基汉堡店", "address": "泉山区夹河街光荣巷小学东50米", "phone": "0516-85732330", "open_time": "周一至周日 07:30-23:30  非营业时段 2018-02-15至2018-02-17 全天", "longitude": 117.179153, "latitude": 34.266223}

http://xz.meituan.com/meishi/5038095/

{"name": "两岸咖啡（贾汪店）", "address": "泉城新区山水大道南侧便民早餐点二楼", "phone": "0516-61888976", "open_time": "周一至周日 09:30-00:00", "longitude": 117.460531, "latitude": 34.433992}

http://xz.meituan.com/meishi/6882671/

{"name": "老船长泡芙（湖滨一小店）", "address": "鼓楼区工农南路110-1-101号（湖滨一小北50米广济连锁隔壁）", "phone": "0516-61666232", "open_time": "周一至周日 08:00-22:00", "longitude": 117.150121, "latitude": 34.253257}

http://xz.meituan.com/meishi/40371299/

{"name": "遇见咖啡", "address": "东兴路1号大广场运东派出所北面（老魏批发部二楼）", "phone": "0516-66680036", "open_time": "周一至周日 09:00-00:00", "longitude": 117.972127, "latitude": 34.312319}

http://xz.meituan.com/meishi/40856485/

{"name": "欢乐牧场烧烤涮自助餐厅", "address": "新沂市新安镇南京路新天地商城零点南侧3楼", "phone": "0516-88699799", "open_time": "周一至周日 11:30-14:00 17:30-21:00", "longitude": 118.353659, "latitude": 34.371984}

http://xz.meituan.com/meishi/52911183/

{"name": "溢品香黄焖鸡米饭", "address": "鼓楼区金马路苹果汇邻湾一楼", "phone": "0516-66655866", "open_time": "周一至周日 09:00-23:00  非营业时段 2018-02-15至2018-02-16 15:00-24:00", "longitude": 117.207209, "latitude": 34.300993}

http://xz.meituan.com/meishi/52988705/

{"name": "米斯韦尔西饼屋", "address": "新华南路8号巨融国际豪园东门南100米", "phone": "0516-88899899", "open_time": "", "longitude": 118.338721, "latitude": 34.341027}

http://xz.meituan.com/meishi/4966146/

{"name": "老船长泡芙（绿地店）", "address": "云龙区汉景大道绿地1期北门口（亿鼎超市对面）", "phone": "18796243128", "open_time": "周一至周日 08:00-21:00", "longitude": 117.245467, "latitude": 34.246038}

http://xz.meituan.com/meishi/4737715/

{"name": "艾堡汉堡", "address": "泉山区淮海西路五星电器旁边尚城国际欢乐买东一百米", "phone": "0516-85857764", "open_time": "周一至周日 09:00-22:00", "longitude": 117.159987, "latitude": 34.263166}

********第7页*********http://xz.meituan.com/meishi/pn7/[{'name': '小田田西饼屋（睢宁一店）', 'ID': 6740319}, {'name': '英伦时光手感烘焙（新沂店）', 'ID': 4956361}, {'name': '猫掌柜（宏大店）', 'ID': 4994636}, {'name': '家家乐蛋糕坊（绿地店）', 'ID': 3295268}, {'name': '宋记板面', 'ID': 40209637}, {'name': '友和健康米线', 'ID': 41387931}, {'name': '杨铭宇黄焖鸡米饭（东关小学店）', 'ID': 6207234}, {'name': '奥里飘香（世纪路店）', 'ID': 1523393}, {'name': '李记大骨菌煲小地锅', 'ID': 41992899}, {'name': '大脸鸡排（新沂店）', 'ID': 4726648}, {'name': '好七水饺（蟠桃店）', 'ID': 5816203}, {'name': '福宇记黄焖鸡米饭（贾汪百大店）', 'ID': 5818592}, {'name': 'if私家蛋糕', 'ID': 41544725}, {'name': '地锅爱上盖浇饭', 'ID': 41723210}, {'name': '格格屋西饼（长江路实验幼儿园店）', 'ID': 40688528}, {'name': '欣生甜食店', 'ID': 6993051}, {'name': '麦克风', 'ID': 4641371}, {'name': '二妮菜煎饼', 'ID': 42073712}, {'name': '金日蛋糕（总店）', 'ID': 1541819}, {'name': '狐狸南瓜盖浇饭（金三角店）', 'ID': 5705331}, {'name': '最高鸡密（新东路店）', 'ID': 5114121}, {'name': '乐事多炸鸡汉堡', 'ID': 4810406}, {'name': '美石记石锅拌饭', 'ID': 40085345}, {'name': '1+披萨', 'ID': 4690207}, {'name': '蜜斯家的披萨', 'ID': 51706724}, {'name': '88℃烘焙', 'ID': 5696198}, {'name': '一品坊黄焖鸡米饭', 'ID': 52124902}, {'name': '小田田手感烘焙（段庄店）', 'ID': 40590743}, {'name': '老翟板面', 'ID': 40379864}, {'name': '普理的年代（万达店）', 'ID': 5593724}, {'name': '疯狂薯条（新沂店）', 'ID': 40941142}, {'name': '徐家铺子良心食品（黄山垄店）', 'ID': 41504184}]

http://xz.meituan.com/meishi/6740319/

{"name": "小田田西饼屋（睢宁一店）", "address": "天虹大道43号（康馨花园店）", "phone": "0516-88099333", "open_time": "", "longitude": 117.961138, "latitude": 33.904288}

http://xz.meituan.com/meishi/4956361/

{"name": "英伦时光手感烘焙（新沂店）", "address": "新沂市钟吾路99-9号华联生活广场一楼（金鹰电影院）", "phone": "18260775866/15252298979", "open_time": "周一至周日 08:00-21:30", "longitude": 118.352645, "latitude": 34.365803}

http://xz.meituan.com/meishi/4994636/

{"name": "猫掌柜（宏大店）", "address": "邳州市宏大集美广场地下负一层", "phone": "13625127911", "open_time": "", "longitude": 117.960559, "latitude": 34.310074}

http://xz.meituan.com/meishi/3295268/

{"name": "家家乐蛋糕坊（绿地店）", "address": "云龙区绿地世纪城二期教堂西隔壁", "phone": "0516-83566960/15162246030", "open_time": "周一至周日 09:00-20:00", "longitude": 117.245907, "latitude": 34.247389}

http://xz.meituan.com/meishi/40209637/

{"name": "宋记板面", "address": "富国街市立医院后面富国小吃街内八猪隔壁", "phone": "13083539867", "open_time": "非营业时段 2018-02-14至2018-02-22 全天", "longitude": 117.182661, "latitude": 34.266015}

http://xz.meituan.com/meishi/41387931/

{"name": "友和健康米线", "address": "云龙区德政路民富园旁圆盘道向北100米路西", "phone": "13218806866", "open_time": "周一至周日 07:00-20:00", "longitude": 117.238321, "latitude": 34.248358}

http://xz.meituan.com/meishi/6207234/

{"name": "杨铭宇黄焖鸡米饭（东关小学店）", "address": "丰县育红巷东关小学楼下大金鹰服饰斜对面", "phone": "13775804737", "open_time": "周一至周日 09:00-21:00  非营业时段 2018-02-18至2018-02-19 00:00-04:00", "longitude": 116.60265, "latitude": 34.695189}

http://xz.meituan.com/meishi/1523393/

{"name": "奥里飘香（世纪路店）", "address": "世纪路幼儿园西20米（老矿店）", "phone": "18796298980", "open_time": "周一至周日 08:30-20:30", "longitude": 117.451062, "latitude": 34.434407}

http://xz.meituan.com/meishi/41992899/

{"name": "李记大骨菌煲小地锅", "address": "黄楼街道福源广场二楼美食广场", "phone": "13852038280", "open_time": "周一至周日 09:00-20:00", "longitude": 117.194558, "latitude": 34.273956}

http://xz.meituan.com/meishi/4726648/

{"name": "大脸鸡排（新沂店）", "address": "新安镇公园路四中对面（幸福味道北邻）", "phone": "0516-88996995", "open_time": "", "longitude": 118.347195, "latitude": 34.366122}

http://xz.meituan.com/meishi/5816203/

{"name": "好七水饺（蟠桃店）", "address": "鼓楼区徐州经济开发区蟠桃花园泰隆商业街", "phone": "0516-87895858/18136365366", "open_time": "周一至周日 07:30-01:30", "longitude": 117.272285, "latitude": 34.284482}

http://xz.meituan.com/meishi/5818592/

{"name": "福宇记黄焖鸡米饭（贾汪百大店）", "address": "将军大街百货大楼一楼美食区", "phone": "13852097414/15152157935", "open_time": "周一至周日 10:00-20:30", "longitude": 117.451867, "latitude": 34.443014}

http://xz.meituan.com/meishi/41544725/

{"name": "if私家蛋糕", "address": "运平路锦江广场南再就业市场东第五家", "phone": "15852438901", "open_time": "周一至周日 08:00-18:00", "longitude": 117.960773, "latitude": 34.324732}

http://xz.meituan.com/meishi/41723210/

{"name": "地锅爱上盖浇饭", "address": "新沂市钟吾路雨润广场美食街区MS003号", "phone": "13815323898", "open_time": "周一至周日 10:00-20:30", "longitude": 118.351145, "latitude": 34.3739}

http://xz.meituan.com/meishi/40688528/

{"name": "格格屋西饼（长江路实验幼儿园店）", "address": "运河镇现代汉城北门对面（长江东路实验幼儿园门东）", "phone": "0516-86876777", "open_time": "", "longitude": 117.977634, "latitude": 34.337788}

http://xz.meituan.com/meishi/6993051/

{"name": "欣生甜食店", "address": "邳州市锦江西路锦江小区门面房11号", "phone": "15852103278", "open_time": "", "longitude": 117.961009, "latitude": 34.327963}

http://xz.meituan.com/meishi/4641371/

{"name": "麦克风", "address": "邳州市青年东路46-1号（运河初中部东100米）", "phone": "13913489756", "open_time": "周一至周日 08:00-21:00", "longitude": 117.966755, "latitude": 34.307055}

http://xz.meituan.com/meishi/42073712/

{"name": "二妮菜煎饼", "address": "邳州市南阳百货巷内60米（时代购物广场北侧）", "phone": "15162021152", "open_time": "", "longitude": 117.960464, "latitude": 34.311235}

http://xz.meituan.com/meishi/1541819/

{"name": "金日蛋糕（总店）", "address": "邳州市青年东路与文化路交叉口（老运河中学初中部对面）", "phone": "0516-66680778", "open_time": "周一至周日 10:00-20:00", "longitude": 117.967169, "latitude": 34.306772}

http://xz.meituan.com/meishi/5705331/

{"name": "狐狸南瓜盖浇饭（金三角店）", "address": "金三角华联小吃街东首", "phone": "0516-81611096", "open_time": "", "longitude": 118.355778, "latitude": 34.372487}

http://xz.meituan.com/meishi/5114121/

{"name": "最高鸡密（新东路店）", "address": "新沂市新安镇新东路28号(罗马名城西门南侧,最佳拍档网吧旁)", "phone": "18061103336", "open_time": "周一至周日 10:00-21:00", "longitude": 118.36836, "latitude": 34.37684}

http://xz.meituan.com/meishi/4810406/

{"name": "乐事多炸鸡汉堡", "address": "公园路农贸市场C号楼4、5号", "phone": "0516-88939955", "open_time": "周一至周日 09:30-20:00", "longitude": 118.34665, "latitude": 34.373366}

http://xz.meituan.com/meishi/40085345/

{"name": "美石记石锅拌饭", "address": "新沂市悠沃美食街区010", "phone": "15252214534", "open_time": "周一至周日 09:30-21:30", "longitude": 118.351862, "latitude": 34.373767}

http://xz.meituan.com/meishi/4690207/

{"name": "1+披萨", "address": "邳州市解放路大唐街59号（川锅一号正后方，红舵码头南10米）", "phone": "0516-86277252/18012009337", "open_time": "周一至周日 10:00-21:00", "longitude": 117.968535, "latitude": 34.311359}

http://xz.meituan.com/meishi/51706724/

{"name": "蜜斯家的披萨", "address": "新沂市新华路阳光帝景城22-40号二中对面", "phone": "15062060958", "open_time": "", "longitude": 118.341328, "latitude": 34.372292}

http://xz.meituan.com/meishi/5696198/

{"name": "88℃烘焙", "address": "邳州市青年东路运中初中部农业银行对面", "phone": "13585367183", "open_time": "周一至周日 07:00-22:30", "longitude": 117.968327, "latitude": 34.305777}

http://xz.meituan.com/meishi/52124902/

{"name": "一品坊黄焖鸡米饭", "address": "大学路矿大南湖校区小南门", "phone": "15852754945", "open_time": "周一至周四 10:00-22:00", "longitude": 117.136663, "latitude": 34.211569}

http://xz.meituan.com/meishi/40590743/

{"name": "小田田手感烘焙（段庄店）", "address": "泉山区淮海西路延长段38号-东-101", "phone": "0516-85857886", "open_time": "周一至周日 09:00-19:00", "longitude": 117.15304, "latitude": 34.259602}

http://xz.meituan.com/meishi/40379864/

{"name": "老翟板面", "address": "盛世名门门面房（新人民医院南门对面）", "phone": "15952290778", "open_time": "", "longitude": 118.34168, "latitude": 34.344045}

http://xz.meituan.com/meishi/5593724/

{"name": "普理的年代（万达店）", "address": "云龙区和平大道万达金街3号门对面", "phone": "17327662799/18151833799", "open_time": "周一至周日 09:30-21:30", "longitude": 117.244539, "latitude": 34.253686}

http://xz.meituan.com/meishi/40941142/

{"name": "疯狂薯条（新沂店）", "address": "新沂马陵山镇临沭路和润玩家西侧", "phone": "18005224768", "open_time": "", "longitude": 118.36156, "latitude": 34.203204}

http://xz.meituan.com/meishi/41504184/

{"name": "徐家铺子良心食品（黄山垄店）", "address": "垄假山西行50米路北（要德火锅斜对面）", "phone": "13576495587", "open_time": "周一至周日 09:00-21:00", "longitude": 117.23757, "latitude": 34.25634}

********第8页*********http://xz.meituan.com/meishi/pn8/[{'name': '尚美味绿豆酥（建国西路店）', 'ID': 3319994}, {'name': '老船长泡芙（铜山新区店）', 'ID': 2403843}, {'name': '有粉有面（万达百货店）', 'ID': 4168032}, {'name': '二娃罐罐米线', 'ID': 4096597}, {'name': '碰碰凉', 'ID': 4585849}, {'name': '彭城印象', 'ID': 6384729}, {'name': '猫先森时尚微餐厅（沃尔玛店）', 'ID': 3267640}, {'name': '岁岁羊涮肉（矿大店）', 'ID': 52941515}, {'name': '莲年有鱼时尚炭烤鱼（户部山店）', 'ID': 4271809}, {'name': '竹园村火锅', 'ID': 4050651}, {'name': '高丽苑韩国烤肉（1818美食广场店）', 'ID': 6721496}, {'name': '严厨老坛酸菜鱼（1818店）', 'ID': 5923371}, {'name': '东方豪客（丰县店）', 'ID': 50420976}, {'name': '川锅一号火锅（牌楼店）', 'ID': 935619}, {'name': '东方豪客（和信店）', 'ID': 66413574}, {'name': '张亮麻辣烫（万达店）', 'ID': 52935047}, {'name': '牛魔王烤饼搞串（苏宁店）', 'ID': 150007215}, {'name': '三毛小地锅', 'ID': 52943282}, {'name': '馋小喵三汁焖锅（和信店）', 'ID': 65701962}, {'name': '麦顿堡（堤北店）', 'ID': 41994274}, {'name': '赶海', 'ID': 52105909}, {'name': '馋小喵三汁焖锅（汇邻湾店）', 'ID': 64363188}, {'name': '徐哥卤肉卷', 'ID': 66756575}, {'name': '多伦多海鲜自助餐厅（徐州金鹰2店）', 'ID': 4476885}, {'name': '湖湘毛家菜（民富园店）', 'ID': 6977538}, {'name': '嘿店寿司', 'ID': 51198913}, {'name': '比格自助比萨（新沂店）', 'ID': 4079292}, {'name': '秦嘟嘟小厨', 'ID': 68667755}, {'name': '马洪亮麻辣烫', 'ID': 51057175}, {'name': '福林渔港（灯塔店）', 'ID': 6027521}, {'name': '大李集卷面皮', 'ID': 61721980}, {'name': '巴中火锅（汇邻湾店）', 'ID': 6264180}]

http://xz.meituan.com/meishi/3319994/

{"name": "尚美味绿豆酥（建国西路店）", "address": "泉山区建国西路财富广场对面", "phone": "13375123568/18005201118", "open_time": "周一至周日 10:00-18:00", "longitude": 117.1785, "latitude": 34.25994}

http://xz.meituan.com/meishi/2403843/

{"name": "老船长泡芙（铜山新区店）", "address": "铜山新区同昌西路169-11号", "phone": "0516-66623567/18261488819", "open_time": "周一至周日 08:00-21:00", "longitude": 117.180368, "latitude": 34.189504}

http://xz.meituan.com/meishi/4168032/

{"name": "有粉有面（万达百货店）", "address": "云龙区和平大道58号万达百货万达金街主街1层", "phone": "15396838682", "open_time": "", "longitude": 117.245243, "latitude": 34.253033}

http://xz.meituan.com/meishi/4096597/

{"name": "二娃罐罐米线", "address": "鼓楼区长安大道泰隆商业街建设银行斜对面巷内", "phone": "18752158049", "open_time": "周一至周日 10:00-22:00", "longitude": 117.27266, "latitude": 34.284584}

http://xz.meituan.com/meishi/4585849/

{"name": "碰碰凉", "address": "睢宁县元府中路", "phone": "0516-86399899", "open_time": "周一至周日 09:00-22:30", "longitude": 117.953243, "latitude": 33.89796}

http://xz.meituan.com/meishi/6384729/

{"name": "彭城印象", "address": "子房北路山水康桥小区门口", "phone": "0516-66622227/83167222", "open_time": "周一至周日 11:00-20:30", "longitude": 117.215788, "latitude": 34.266556}

http://xz.meituan.com/meishi/3267640/

{"name": "猫先森时尚微餐厅（沃尔玛店）", "address": "解放路沃尔玛一层", "phone": "0516-83336123", "open_time": "周一至周日 10:00-21:00", "longitude": 117.193696, "latitude": 34.250882}

http://xz.meituan.com/meishi/52941515/

{"name": "岁岁羊涮肉（矿大店）", "address": "泉山区解放南路矿大西门对面", "phone": "0516-83888799", "open_time": "周一至周日 10:00-01:00  非营业时段 2018-02-15至2018-02-17 全天", "longitude": 117.19523, "latitude": 34.21879}

http://xz.meituan.com/meishi/4271809/

{"name": "莲年有鱼时尚炭烤鱼（户部山店）", "address": "彭城路建国路交叉口户部山牌坊下路东（户部山牌坊下路东）", "phone": "83809797", "open_time": "周一至周日 10:00-21:00", "longitude": 117.18827, "latitude": 34.258076}

http://xz.meituan.com/meishi/4050651/

{"name": "竹园村火锅", "address": "云龙区民富园商业园东单元2号楼（黄山派出所对面）", "phone": "0516-85719977", "open_time": "周一至周日 09:00-00:00", "longitude": 117.23004, "latitude": 34.24742}

http://xz.meituan.com/meishi/6721496/

{"name": "高丽苑韩国烤肉（1818美食广场店）", "address": "鼓楼区夹河东街1818美食广场一楼大厅内", "phone": "0516-81270888", "open_time": "", "longitude": 117.187653, "latitude": 34.270563}

http://xz.meituan.com/meishi/5923371/

{"name": "严厨老坛酸菜鱼（1818店）", "address": "鼓楼区黄楼街道夹河东街1818美食广场3楼", "phone": "0516-83736399", "open_time": "周一至周日 09:30-23:00", "longitude": 117.187671, "latitude": 34.270529}

http://xz.meituan.com/meishi/50420976/

{"name": "东方豪客（丰县店）", "address": "丰县华地步行街北首（丰县汽车站西200米）", "phone": "0516-89205777", "open_time": "周一至周日 10:00-21:30", "longitude": 116.605681, "latitude": 34.698528}

http://xz.meituan.com/meishi/935619/

{"name": "川锅一号火锅（牌楼店）", "address": "鼓楼区夹河东街老牌楼1818美食广场3楼", "phone": "0516-83607988", "open_time": "周一至周日 08:30-21:30 夜宵 21:30-03:00", "longitude": 117.187586, "latitude": 34.270411}

http://xz.meituan.com/meishi/66413574/

{"name": "东方豪客（和信店）", "address": "鼓楼区办事处和信广场2期购物中心5楼L-505室", "phone": "0516-80568568", "open_time": "周一至周日 10:00-24:00", "longitude": 117.20357, "latitude": 34.26839}

http://xz.meituan.com/meishi/52935047/

{"name": "张亮麻辣烫（万达店）", "address": "云龙区万达广场三号门斜对面（漫烤鱼对面）", "phone": "15996992215", "open_time": "周一至周日 11:00-21:30", "longitude": 117.244515, "latitude": 34.253194}

http://xz.meituan.com/meishi/150007215/

{"name": "牛魔王烤饼搞串（苏宁店）", "address": "鼓楼区解放北路锦绣茗都东5号（苏宁广场东门锦绣茗都与汇源置地交口）", "phone": "15996978441", "open_time": "周一至周日 10:30-22:00", "longitude": 117.191175, "latitude": 34.265258}

http://xz.meituan.com/meishi/52943282/

{"name": "三毛小地锅", "address": "鼓楼区富国街醒狮小区南门院内左拐10米", "phone": "13775889651", "open_time": "", "longitude": 117.183901, "latitude": 34.266456}

http://xz.meituan.com/meishi/65701962/

{"name": "馋小喵三汁焖锅（和信店）", "address": "鼓楼区复兴北路和信广场金街", "phone": "0516-83600329", "open_time": "", "longitude": 117.201117, "latitude": 34.268262}

http://xz.meituan.com/meishi/41994274/

{"name": "麦顿堡（堤北店）", "address": "堤北路建设银行南15米（滨湖城市花园小区对面）", "phone": "0516-87728986", "open_time": "周一至周日 08:00-24:00", "longitude": 117.198739, "latitude": 34.282616}

http://xz.meituan.com/meishi/52105909/

{"name": "赶海", "address": "鼓楼区黄河南路合群小区北门斜对面（古黄河公园内）", "phone": "0516-82566662/82566663", "open_time": "", "longitude": 117.164506, "latitude": 34.273879}

http://xz.meituan.com/meishi/64363188/

{"name": "馋小喵三汁焖锅（汇邻湾店）", "address": "鼓楼区苹果汇邻湾广场二楼", "phone": "0516-87762122/15366780272", "open_time": "", "longitude": 117.207233, "latitude": 34.300986}

http://xz.meituan.com/meishi/66756575/

{"name": "徐哥卤肉卷", "address": "鼓楼区办事处淮海东路王府井西3号门面房（肯德基旁）", "phone": "-15996969752-/13505218032", "open_time": "", "longitude": 117.189492, "latitude": 34.263987}

http://xz.meituan.com/meishi/4476885/

{"name": "多伦多海鲜自助餐厅（徐州金鹰2店）", "address": "泉山区淮海西路金鹰人民广场4楼（近金鹰2店）", "phone": "0516-85652277", "open_time": "非营业时段 2018-02-15至2018-02-16 全天", "longitude": 117.16287, "latitude": 34.26417}

http://xz.meituan.com/meishi/6977538/

{"name": "湖湘毛家菜（民富园店）", "address": "云龙区三环东路民富园路口(海荧别克4S店隔壁)", "phone": "0516-83568077", "open_time": "", "longitude": 117.230929, "latitude": 34.247469}

http://xz.meituan.com/meishi/51198913/

{"name": "嘿店寿司", "address": "睢宁县八一路万象天地老凤祥向西50米", "phone": "15950051003", "open_time": "周一至周日 09:00-21:00", "longitude": 117.94938, "latitude": 33.902121}

http://xz.meituan.com/meishi/4079292/

{"name": "比格自助比萨（新沂店）", "address": "新沂市市府路48号新亚大厦2楼", "phone": "0516-88910007", "open_time": "周一至周日 11:00-14:30 17:00-21:30", "longitude": 118.353087, "latitude": 34.370003}

http://xz.meituan.com/meishi/68667755/

{"name": "秦嘟嘟小厨", "address": "鼓楼区金地商务中心负1层（龙泰大厦负一层金地商务中心对面）", "phone": "15298782007", "open_time": "周一至周日 10:30-21:00  非营业时段 2018-02-10至2018-02-21 全天", "longitude": 117.186584, "latitude": 34.268924}

http://xz.meituan.com/meishi/51057175/

{"name": "马洪亮麻辣烫", "address": "鼓楼区夹河东街1818美食广场负一楼南门（明哲家隔壁）", "phone": "17712430642", "open_time": "周一至周日 10:00-20:00", "longitude": 117.187502, "latitude": 34.270025}

http://xz.meituan.com/meishi/6027521/

{"name": "福林渔港（灯塔店）", "address": "泉山区苏堤路灯塔农贸市场北侧隔壁", "phone": "0516-85691696", "open_time": "周一至周日 11:30-14:00 17:30-20:30", "longitude": 117.173476, "latitude": 34.257067}

http://xz.meituan.com/meishi/61721980/

{"name": "大李集卷面皮", "address": "新市街西头红绿灯南面，睢中南校南50米（原天天欢乐买西100米）", "phone": "13952253158/15262133789", "open_time": "", "longitude": 117.955008, "latitude": 33.895137}

http://xz.meituan.com/meishi/6264180/

{"name": "巴中火锅（汇邻湾店）", "address": "鼓楼区荆马路与殷庄路交叉口苹果汇邻湾广场三楼", "phone": "0516-87310057", "open_time": "冬季 周一至周日 11:00-14:00 17:00-21:00", "longitude": 117.208108, "latitude": 34.301319}

********第9页*********http://xz.meituan.com/meishi/pn9/[{'name': '闽南海鲜酒楼', 'ID': 1362699}, {'name': '天天火锅', 'ID': 2508022}, {'name': '徐州老菜馆（夹河街店）', 'ID': 2459074}, {'name': 'N多寿司（新沂店）', 'ID': 50228310}, {'name': '柠檬鱼专业酸菜鱼连锁（邳州店）', 'ID': 64688542}, {'name': '正宗台湾脆皮玉米（丰县店）', 'ID': 64206895}, {'name': '哈哈香黄焖鸡米饭', 'ID': 5031670}, {'name': '老街', 'ID': 935441}, {'name': '鸡脚饭（户部山店）', 'ID': 2473755}, {'name': '红海椒·天缘酒店（水漫桥店）', 'ID': 2488600}, {'name': '牛仔很忙肉蟹锅', 'ID': 41737733}, {'name': '桥头排骨（万象店）', 'ID': 40961750}, {'name': '乐八零吧式music火锅', 'ID': 40906080}, {'name': '老房子', 'ID': 5095729}, {'name': '哈哈香黄焖鸡（大唐街店）', 'ID': 4668423}, {'name': '莫奇卡托（文亭街店）', 'ID': 60597}, {'name': '筷子江湖武侠主题餐厅（师大店）', 'ID': 93656855}, {'name': '万家福酒店', 'ID': 2075151}, {'name': '九仟食尚火锅（万达百货店）', 'ID': 42687618}, {'name': '何记花甲（徐州富国街店）', 'ID': 6338996}, {'name': '万千糕饼（新沂店）', 'ID': 5832997}, {'name': '老彭城小地锅', 'ID': 50202078}, {'name': '星美国际影商城（绿地店）', 'ID': 80274}, {'name': '德盛园酒楼', 'ID': 1458001}, {'name': '新石器烤肉（彭城壹号店）', 'ID': 4316041}, {'name': '米果当家披萨牛排西餐', 'ID': 6842993}, {'name': '粉爱面（百大店）', 'ID': 60411888}, {'name': '咣咣煲仔饭', 'ID': 42855578}, {'name': '蓝畅咖啡', 'ID': 2435614}, {'name': '华莱堡（东苑店）', 'ID': 51332501}, {'name': '凯莱西饼屋（总店）', 'ID': 41358763}, {'name': '渔人码头·云水肴', 'ID': 5197644}]

http://xz.meituan.com/meishi/1362699/

{"name": "闽南海鲜酒楼", "address": "鼓楼区黄河南路68号", "phone": "0516-66696999", "open_time": "周二至周六 12:00-15:00 19:30-23:00", "longitude": 117.160736, "latitude": 34.27417}

http://xz.meituan.com/meishi/2508022/

{"name": "天天火锅", "address": "邳州市民主路27号（老民政局斜对过）", "phone": "0516-82603898", "open_time": "", "longitude": 117.966552, "latitude": 34.309643}

http://xz.meituan.com/meishi/2459074/

{"name": "徐州老菜馆（夹河街店）", "address": "鼓楼区夹河街2号（耐克对面）", "phone": "0516-85585501", "open_time": "周一至周日 午市 11:30-14:30 晚市 17:30-21:30", "longitude": 117.184309, "latitude": 34.269245}

http://xz.meituan.com/meishi/50228310/

{"name": "N多寿司（新沂店）", "address": "新沂市新安镇南京路57号邮局北（农村商业银行隔壁）", "phone": "13218556779/18552877331", "open_time": "周一至周日 09:30-21:30", "longitude": 118.352989, "latitude": 34.374949}

http://xz.meituan.com/meishi/64688542/

{"name": "柠檬鱼专业酸菜鱼连锁（邳州店）", "address": "邳州市民主路程记烤鱼对面", "phone": "0516-86262127", "open_time": "周一至周日 09:30-21:30", "longitude": 117.96785, "latitude": 34.309505}

http://xz.meituan.com/meishi/64206895/

{"name": "正宗台湾脆皮玉米（丰县店）", "address": "丰县华地秀街东头（沙县小吃店东侧）", "phone": "18361551878/15950657037", "open_time": "周一至周日 10:00-21:00", "longitude": 116.607784, "latitude": 34.69594}

http://xz.meituan.com/meishi/5031670/

{"name": "哈哈香黄焖鸡米饭", "address": "邳州市建设路聚宝花园隔壁", "phone": "0516-86996887", "open_time": "周一至周日 11:00-21:00", "longitude": 117.964609, "latitude": 34.323692}

http://xz.meituan.com/meishi/935441/

{"name": "老街", "address": "鼓楼区淮海西路263号（近市第六人民医院）", "phone": "0516-85626777/85626888", "open_time": "周一至周日 10:00-20:00", "longitude": 117.157622, "latitude": 34.261167}

http://xz.meituan.com/meishi/2473755/

{"name": "鸡脚饭（户部山店）", "address": "彭城路步行街308号", "phone": "15380177616", "open_time": "周一至周日 09:30-21:00", "longitude": 117.187608, "latitude": 34.25605}

http://xz.meituan.com/meishi/2488600/

{"name": "红海椒·天缘酒店（水漫桥店）", "address": "泉山区水漫桥和黄河南路交叉路口南行50米路西（近餐饮部）", "phone": "0516-85658558/85656518", "open_time": "周一至周日 11:00-14:00 17:30-20:30", "longitude": 117.153177, "latitude": 34.273646}

http://xz.meituan.com/meishi/41737733/

{"name": "牛仔很忙肉蟹锅", "address": "鼓楼区牌楼1818美食广场1楼", "phone": "0516-66631888/15715215158", "open_time": "周一至周日 10:30-22:00  非营业时段 2018-02-15至2018-02-16 全天", "longitude": 117.18767, "latitude": 34.27053}

http://xz.meituan.com/meishi/40961750/

{"name": "桥头排骨（万象店）", "address": "睢宁县八一路万象天地台北纯K入口处第三家", "phone": "18652364166", "open_time": "周一至周日 10:00-22:00", "longitude": 117.94938, "latitude": 33.902121}

http://xz.meituan.com/meishi/40906080/

{"name": "乐八零吧式music火锅", "address": "铜山新区海河西路16-2号", "phone": "0516-83198888", "open_time": "11:00-14:00,17:00-21:00", "longitude": 117.186807, "latitude": 34.193658}

http://xz.meituan.com/meishi/5095729/

{"name": "老房子", "address": "邳州市恒山路富贵第一城1幢A08苏锦壹号", "phone": "0516-86069555/86059222", "open_time": "周一至周日 10:00-20:00", "longitude": 117.958668, "latitude": 34.33371}

http://xz.meituan.com/meishi/4668423/

{"name": "哈哈香黄焖鸡（大唐街店）", "address": "邳州市解放东路大唐街西门（工商银行后面）", "phone": "0516-86226967", "open_time": "周一至周日 10:00-22:00", "longitude": 117.96702, "latitude": 34.311863}

http://xz.meituan.com/meishi/60597/

{"name": "莫奇卡托（文亭街店）", "address": "鼓楼区文亭街与中山南路路口西50米北侧（近五星电器）", "phone": "0516-85603800", "open_time": "周一至周日 09:30-20:00", "longitude": 117.185437, "latitude": 34.261174}

http://xz.meituan.com/meishi/93656855/

{"name": "筷子江湖武侠主题餐厅（师大店）", "address": "铜山新区海河西路16-4号（实验小学红绿灯往东50米路北）", "phone": "0516-83538555/13685106547", "open_time": "", "longitude": 117.186826, "latitude": 34.193666}

http://xz.meituan.com/meishi/2075151/

{"name": "万家福酒店", "address": "西苑中路消防支队斜对面", "phone": "0516-85855959", "open_time": "周一至周日 11:00-14:00 18:00-21:30", "longitude": 117.145776, "latitude": 34.268768}

http://xz.meituan.com/meishi/42687618/

{"name": "九仟食尚火锅（万达百货店）", "address": "云龙区和平大道58号万达百货3层", "phone": "0516-83560569", "open_time": "周一至周日 10:00-21:00  非营业时段 2018-02-15至2018-02-15 14:00-21:00", "longitude": 117.245243, "latitude": 34.253033}

http://xz.meituan.com/meishi/6338996/

{"name": "何记花甲（徐州富国街店）", "address": "泉山区富国街笑笑凉皮十字路口向北50米路西", "phone": "18112218659", "open_time": "周一至周日 10:00-21:00  非营业时段 2018-02-14至2018-02-22 全天", "longitude": 117.182768, "latitude": 34.266714}

http://xz.meituan.com/meishi/5832997/

{"name": "万千糕饼（新沂店）", "address": "新沂市新安路6-8号（新安镇新安路6-8号）", "phone": "0516-88931799", "open_time": "周一至周日 07:30-21:00", "longitude": 118.353759, "latitude": 34.377498}

http://xz.meituan.com/meishi/50202078/

{"name": "老彭城小地锅", "address": "丰县育红巷东关小学，珍爱一生旁", "phone": "14762162668", "open_time": "周一至周日 09:00-21:00", "longitude": 116.602725, "latitude": 34.695658}

http://xz.meituan.com/meishi/80274/

{"name": "星美国际影商城（绿地店）", "address": "云龙区庆丰路西绿地世纪城购物中心3层（近和平路）", "phone": "0516-85538188", "open_time": "周一至周日\n09:30-22:00", "longitude": 117.249531, "latitude": 34.249628}

http://xz.meituan.com/meishi/1458001/

{"name": "德盛园酒楼", "address": "解放南路与淮塔东路交叉口淮塔东门东行50米路北（徐州市淮海纪念塔东门附近）", "phone": "0516-83860983/87566868", "open_time": "周一至周日 08:00-24:00", "longitude": 117.201389, "latitude": 34.236253}

http://xz.meituan.com/meishi/4316041/

{"name": "新石器烤肉（彭城壹号店）", "address": "鼓楼区黄楼街道彭城路1号南", "phone": "15050015890", "open_time": "周一至周日 08:00-21:30", "longitude": 117.188205, "latitude": 34.268105}

http://xz.meituan.com/meishi/6842993/

{"name": "米果当家披萨牛排西餐", "address": "云龙区万达北门七号门东，停车场出口3071号", "phone": "0516-83378963/13337937327", "open_time": "周一至周日 09:00-22:00", "longitude": 117.24703, "latitude": 34.254046}

http://xz.meituan.com/meishi/60411888/

{"name": "粉爱面（百大店）", "address": "百货大楼一楼餐饮区", "phone": "18118505866", "open_time": "周一至周日 09:00-21:00", "longitude": 117.451725, "latitude": 34.443138}

http://xz.meituan.com/meishi/42855578/

{"name": "咣咣煲仔饭", "address": "新沂市南京路悠沃时尚街区美食广场MS–009号", "phone": "18136026593", "open_time": "周一至周日 09:00-21:00", "longitude": 118.352607, "latitude": 34.373412}

http://xz.meituan.com/meishi/2435614/

{"name": "蓝畅咖啡", "address": "泉山区矿业大学北门对面", "phone": "0516-83999677", "open_time": "周一至周日 09:30-24:00", "longitude": 117.200798, "latitude": 34.22326}

http://xz.meituan.com/meishi/51332501/

{"name": "华莱堡（东苑店）", "address": "云龙区民富园圆盘道东南侧（汉景大道与德政路交叉口）", "phone": "0516-83009096", "open_time": "周一至周日 08:00-24:00", "longitude": 117.238939, "latitude": 34.246487}

http://xz.meituan.com/meishi/41358763/

{"name": "凯莱西饼屋（总店）", "address": "邳州市世纪大道天鸿假日国际大厦6楼（世纪大道汽车站北隔壁）", "phone": "0516-67687777", "open_time": "周一至周日 09:30-20:30", "longitude": 117.966956, "latitude": 34.330577}

http://xz.meituan.com/meishi/5197644/

{"name": "渔人码头·云水肴", "address": "泉山区云龙湖东路汉画像石馆对面（原渔人码头）", "phone": "0516-85696567", "open_time": "周一至周日 10:30-14:00 17:00-20:30", "longitude": 117.175191, "latitude": 34.240454}

********第10页*********http://xz.meituan.com/meishi/pn10/[{'name': '格林咖啡（睢宁店）', 'ID': 4333707}, {'name': '漫时光静吧', 'ID': 42636586}, {'name': '面条康陕西面馆（富国十字店）', 'ID': 6903574}, {'name': '田记把子肉', 'ID': 5037709}, {'name': '汉风楼（万达百货店）', 'ID': 42996478}, {'name': '烙馍卷馓子', 'ID': 1543171}, {'name': '川金楼火锅·干锅', 'ID': 5756217}, {'name': '韩悦韩式烤肉（徐州万达店）', 'ID': 4624002}, {'name': '德克士（睢宁曼哈顿店）', 'ID': 2075479}, {'name': '老牌楼米线（水漫桥店）', 'ID': 61036004}, {'name': '云龙山庄', 'ID': 6647099}, {'name': '珠山渔村', 'ID': 4950697}, {'name': '馋小喵三汁焖锅（铜山新区店）', 'ID': 50808325}, {'name': '红跑车（金地店）', 'ID': 19112}, {'name': '溢品香黄焖鸡米饭（万达百货店）', 'ID': 41198137}, {'name': '薯条专卖薯咖', 'ID': 66087642}, {'name': '英伦时光咖啡', 'ID': 6448149}, {'name': '龙门花甲（富国街店）', 'ID': 69394027}, {'name': '小田田西饼屋（黄河店）', 'ID': 44430}, {'name': '老船长泡芙（大马路文化宫店）', 'ID': 85713}, {'name': '逸客牛排', 'ID': 6959271}, {'name': '川地麻辣烫', 'ID': 2494584}, {'name': 'VQ鲜榨果汁（彭城一号店）', 'ID': 5918014}, {'name': '金叁顺紫菜包饭（华地街店）', 'ID': 4683409}, {'name': '韩宫宴炭火烤肉', 'ID': 5541333}, {'name': '大喜蛋糕（新世纪中学店）', 'ID': 5277707}, {'name': 'NOB HILL诺布山蛋糕', 'ID': 41548672}, {'name': '面条康陕西面馆（睢宁店）', 'ID': 79915851}, {'name': '老船长泡芙（祥和店）', 'ID': 50110617}, {'name': '老城一锅●老北京羊蝎子（解放南路店）', 'ID': 42288292}, {'name': '二妮菜煎饼（王陵路店）', 'ID': 40081996}, {'name': '西树泡芙（金鹰1店）', 'ID': 5641275}]

http://xz.meituan.com/meishi/4333707/

{"name": "格林咖啡（睢宁店）", "address": "人民路12号（实小对面）", "phone": "0516-68068999", "open_time": "周一至周日 10:00-22:30", "longitude": 117.960608, "latitude": 33.906296}

http://xz.meituan.com/meishi/42636586/

{"name": "漫时光静吧", "address": "东兴路12号（运东派出所往北200米路东漫时光静吧）", "phone": "0516-66687123/18086777799", "open_time": "周一至周日 10:30-23:30 晚市 23:30-02:00", "longitude": 117.972567, "latitude": 34.313493}

http://xz.meituan.com/meishi/6903574/

{"name": "面条康陕西面馆（富国十字店）", "address": "泉山区富国街福顺路建行北10米路东", "phone": "0516-85585159", "open_time": "", "longitude": 117.183047, "latitude": 34.266489}

http://xz.meituan.com/meishi/5037709/

{"name": "田记把子肉", "address": "鼓楼区二环北路润和园西门110号（工商银行斜对面）", "phone": "18068734077", "open_time": "周一至周日 11:00-19:00  非营业时段 2018-02-15至2018-02-21 全天", "longitude": 117.194712, "latitude": 34.284684}

http://xz.meituan.com/meishi/42996478/

{"name": "汉风楼（万达百货店）", "address": "云龙区和平大道58号万达百货底商1层", "phone": "0516-83008311", "open_time": "周一至周日 10:00-14:00 17:30-21:00", "longitude": 117.245243, "latitude": 34.253033}

http://xz.meituan.com/meishi/1543171/

{"name": "烙馍卷馓子", "address": "泉山区苏堤南路灯塔农贸市场南隔壁同一首歌斜对面", "phone": "0516-85702000", "open_time": "周一至周日 11:00-14:30 17:00-21:00", "longitude": 117.173615, "latitude": 34.256898}

http://xz.meituan.com/meishi/5756217/

{"name": "川金楼火锅·干锅", "address": "建设南路8号", "phone": "0516-86620717", "open_time": "周一至周日 10:00-15:00", "longitude": 117.96296, "latitude": 34.316152}

http://xz.meituan.com/meishi/4624002/

{"name": "韩悦韩式烤肉（徐州万达店）", "address": "云龙区和平大道58号万达广场3层", "phone": "0516-87877085", "open_time": "周一至周日 11:00-21:00", "longitude": 117.246545, "latitude": 34.253362}

http://xz.meituan.com/meishi/2075479/

{"name": "德克士（睢宁曼哈顿店）", "address": "睢宁县元府中路曼哈顿广场一楼入口处（新世纪中学对面）", "phone": "0516-88151777", "open_time": "周一至周日 08:00-24:00", "longitude": 117.956483, "latitude": 33.898922}

http://xz.meituan.com/meishi/61036004/

{"name": "老牌楼米线（水漫桥店）", "address": "泉山区西苑黄河南路民康园北门华夏幼儿园对面", "phone": "13952118481", "open_time": "周一至周日 10:00-22:00", "longitude": 117.149159, "latitude": 34.273735}

http://xz.meituan.com/meishi/6647099/

{"name": "云龙山庄", "address": "泉山区湖东路与金山东路交叉口东北角（湖东路南湖景区金山塔斜对面）", "phone": "0516-83709999", "open_time": "周一至周日 11:00-14:00 17:00-20:00", "longitude": 117.16743, "latitude": 34.228248}

http://xz.meituan.com/meishi/4950697/

{"name": "珠山渔村", "address": "泉山区云龙湖珠山风景区钓鱼岛内", "phone": "0516-87629888", "open_time": "周一至周日 09:00-14:00 16:30-21:00", "longitude": 117.14292, "latitude": 34.23651}

http://xz.meituan.com/meishi/50808325/

{"name": "馋小喵三汁焖锅（铜山新区店）", "address": "铜山新区南京路步行街南首118号（卡瑞滋烘焙南隔壁）", "phone": "13375110681", "open_time": "", "longitude": 117.180988, "latitude": 34.189855}

http://xz.meituan.com/meishi/19112/

{"name": "红跑车（金地店）", "address": "鼓楼区中山北路6号金地商都隔壁(家乐福超市出口处)", "phone": "0516-83727298", "open_time": "周一至周日 10:00-20:00", "longitude": 117.185938, "latitude": 34.267354}

http://xz.meituan.com/meishi/41198137/

{"name": "溢品香黄焖鸡米饭（万达百货店）", "address": "云龙区和平大道58号万达百货万达金街D区美食城2层", "phone": "18151290920", "open_time": "周一至周日 09:00-21:30", "longitude": 117.245243, "latitude": 34.253033}

http://xz.meituan.com/meishi/66087642/

{"name": "薯条专卖薯咖", "address": "泉山区富国街富国大厦传达室南5米", "phone": "13641538585", "open_time": "周一至周日 10:00-20:30", "longitude": 117.184919, "latitude": 34.266093}

http://xz.meituan.com/meishi/6448149/

{"name": "英伦时光咖啡", "address": "睢宁县元府路2号百宝楼4楼（电梯直达）", "phone": "0516-81360888", "open_time": "周一至周日 09:00-21:00", "longitude": 117.95009, "latitude": 33.897902}

http://xz.meituan.com/meishi/69394027/

{"name": "龙门花甲（富国街店）", "address": "鼓楼区富国街福顺路一品飘香南20米路东", "phone": "18626034037", "open_time": "周一至周日 09:30-24:00", "longitude": 117.18302, "latitude": 34.26742}

http://xz.meituan.com/meishi/44430/

{"name": "小田田西饼屋（黄河店）", "address": "苏堤北路16号（黄河爱客来超市大门北侧）", "phone": "0516-85550818", "open_time": "周一至周日 09:00-19:00", "longitude": 117.168789, "latitude": 34.270495}

http://xz.meituan.com/meishi/85713/

{"name": "老船长泡芙（大马路文化宫店）", "address": "云龙区大马路191号（文化宫消防队对面）", "phone": "0516-83757736/18205215357/18796209394", "open_time": "周一至周日 08:00-22:00", "longitude": 117.196198, "latitude": 34.26498}

http://xz.meituan.com/meishi/6959271/

{"name": "逸客牛排", "address": "睢宁县青年路徐沙河新天地（10楼逸客牛排）", "phone": "0516-88323173", "open_time": "非营业时段 2018-02-15至2018-02-16 08:00-18:00", "longitude": 117.951089, "latitude": 33.887032}

http://xz.meituan.com/meishi/2494584/

{"name": "川地麻辣烫", "address": "鼓楼区解放北路兴隆国际大酒店对面路东院内（大红锅地锅鸡隔壁）", "phone": "0516-83719377", "open_time": "周一至周日 11:00-14:00 17:00-24:00  非营业时段 2018-02-15至2018-02-16 全天", "longitude": 117.19213, "latitude": 34.266533}

http://xz.meituan.com/meishi/5918014/

{"name": "VQ鲜榨果汁（彭城一号店）", "address": "鼓楼区彭城一号2号楼一楼", "phone": "0516-83610108", "open_time": "周一至周日 10:00-22:00", "longitude": 117.187908, "latitude": 34.267854}

http://xz.meituan.com/meishi/4683409/

{"name": "金叁顺紫菜包饭（华地街店）", "address": "丰县华帝步行街100号（苏果大门往北50米路东）", "phone": "13775807524", "open_time": "", "longitude": 116.605833, "latitude": 34.696954}

http://xz.meituan.com/meishi/5541333/

{"name": "韩宫宴炭火烤肉", "address": "泉山区淮海西路270号金鹰人民广场4层", "phone": "0516-85656977", "open_time": "周一至周日 10:00-21:00", "longitude": 117.162838, "latitude": 34.264067}

http://xz.meituan.com/meishi/5277707/

{"name": "大喜蛋糕（新世纪中学店）", "address": "睢宁县新世纪中学对面", "phone": "0516-88258288", "open_time": "周一至周日 07:30-21:00", "longitude": 117.957262, "latitude": 33.898823}

http://xz.meituan.com/meishi/41548672/

{"name": "NOB HILL诺布山蛋糕", "address": "鼓楼区永安街二妮菜煎饼隔壁(维也纳斜对面)", "phone": "0516-85700826", "open_time": "周一至周日 08:00-22:00", "longitude": 117.173459, "latitude": 34.262219}

http://xz.meituan.com/meishi/79915851/

{"name": "面条康陕西面馆（睢宁店）", "address": "睢宁县-1路万象新天地1-188号", "phone": "15190751888", "open_time": "", "longitude": 117.949384, "latitude": 33.902122}

http://xz.meituan.com/meishi/50110617/

{"name": "老船长泡芙（祥和店）", "address": "祥和路7号", "phone": "0516-87086789", "open_time": "周一至周日 10:00-24:00", "longitude": 117.200523, "latitude": 34.290961}

http://xz.meituan.com/meishi/42288292/

{"name": "老城一锅●老北京羊蝎子（解放南路店）", "address": "泉山区矿业大学西门向南200米,如家酒店向里（如家宾馆楼下北侧）", "phone": "0516-83991221", "open_time": "周一至周日 10:00-21:00", "longitude": 117.195011, "latitude": 34.217791}

http://xz.meituan.com/meishi/40081996/

{"name": "二妮菜煎饼（王陵路店）", "address": "王陵路老北平斜对面", "phone": "18626001833", "open_time": "", "longitude": 117.184739, "latitude": 34.256535}

http://xz.meituan.com/meishi/5641275/

{"name": "西树泡芙（金鹰1店）", "address": "鼓楼区中山北路2号，金鹰广场4楼", "phone": "18952137657", "open_time": "周一至周日 10:00-21:00", "longitude": 117.186568, "latitude": 34.266616}

********第11页*********http://xz.meituan.com/meishi/pn11/[{'name': '德克士（安福餐厅）', 'ID': 67957}, {'name': '奕宏饺子楼', 'ID': 62026465}, {'name': '仁和禾擀面皮', 'ID': 66510508}, {'name': '和米堂（彭城1号）', 'ID': 2434925}, {'name': '棒约翰比萨（徐州彭城一号店）', 'ID': 4055749}, {'name': '德克士（徐州火车站餐厅）', 'ID': 2497140}, {'name': '红高粱', 'ID': 5934536}, {'name': '大帅烤面筋', 'ID': 52509253}, {'name': '一桶天下木桶饭', 'ID': 4182990}, {'name': '第三空间咖啡融合菜', 'ID': 6285115}, {'name': 'Butter&Bread轻食餐厅（云龙万达店）', 'ID': 6425926}, {'name': '阿水.大杯茶', 'ID': 4608868}, {'name': '仁和禾擀面皮陕西风味（万达百货店）', 'ID': 42265137}, {'name': '溢品香黄焖鸡米饭（徐州总店）', 'ID': 5045090}, {'name': '元禧日式料理', 'ID': 935906}, {'name': '彭城小地锅（矿大店）', 'ID': 4264815}, {'name': '花妞披萨（苹果店）', 'ID': 65069995}, {'name': '龙门花甲', 'ID': 70408894}, {'name': '悠仙美地（金鹰二店）', 'ID': 6871138}, {'name': '徐家铺子（富国街店）', 'ID': 42452324}, {'name': '蓝枪鱼音乐西餐.酒吧', 'ID': 935581}, {'name': '德克士财富餐厅（泰隆店）', 'ID': 5105744}, {'name': '正宗十三中水晶蛙鱼油泼面', 'ID': 5753733}, {'name': '北京汉丽轩烤肉涮锅自助餐厅（丰县店）', 'ID': 41481532}, {'name': '过桥缘（万达百货店）', 'ID': 4374179}, {'name': '张姐烤肉拌饭', 'ID': 41551691}, {'name': '亚诺咖啡', 'ID': 40884040}, {'name': '南京鸭血粉丝汤', 'ID': 77008659}, {'name': '八喜串串麻辣烫', 'ID': 74033099}, {'name': '棒的很！披萨工坊', 'ID': 62646133}, {'name': '乐享（沛县店）', 'ID': 64933971}, {'name': '阿秦家味（金地店）', 'ID': 5785268}]

http://xz.meituan.com/meishi/67957/

{"name": "德克士（安福餐厅）", "address": "丰县向阳路安福大厦1楼", "phone": "0516-89239518", "open_time": "周一至周日 09:00-21:00  非营业时段 2018-02-15至2018-02-21 全天", "longitude": 116.593807, "latitude": 34.699318}

http://xz.meituan.com/meishi/62026465/

{"name": "奕宏饺子楼", "address": "煤港路朱庄小区底商", "phone": "18652201731", "open_time": "", "longitude": 117.201424, "latitude": 34.289165}

http://xz.meituan.com/meishi/66510508/

{"name": "仁和禾擀面皮", "address": "鼓楼区大坝头和信广场附近（香榭丽花园门面房）", "phone": "13815310892", "open_time": "周一至周日 09:00-21:00  非营业时段 2018-02-14至2018-02-18 全天", "longitude": 117.200911, "latitude": 34.268216}

http://xz.meituan.com/meishi/2434925/

{"name": "和米堂（彭城1号）", "address": "鼓楼区彭城壹号4号楼1楼", "phone": "0516-83707263", "open_time": "周一至周日 10:00-21:00", "longitude": 117.187838, "latitude": 34.268996}

http://xz.meituan.com/meishi/4055749/

{"name": "棒约翰比萨（徐州彭城一号店）", "address": "鼓楼区彭城路1号2-1-06", "phone": "400-888-7272", "open_time": "周一至周日 10:00-22:00", "longitude": 117.187824, "latitude": 34.26799}

http://xz.meituan.com/meishi/2497140/

{"name": "德克士（徐州火车站餐厅）", "address": "复兴北路金凯隆大厦一楼（徐州饭店隔壁）", "phone": "0516-83700007", "open_time": "周一至周日 07:00-23:00", "longitude": 117.204967, "latitude": 34.266483}

http://xz.meituan.com/meishi/5934536/

{"name": "红高粱", "address": "烟厂往东小十字路口往北20米", "phone": "0516-83777369", "open_time": "周一至周日 11:00-14:00 17:00-21:00", "longitude": 117.200813, "latitude": 34.271953}

http://xz.meituan.com/meishi/52509253/

{"name": "大帅烤面筋", "address": "百大对面小吃一条街万年合婚庆公司隔壁", "phone": "13382678071", "open_time": "周一至周日 09:00-20:00", "longitude": 117.450252, "latitude": 34.44424}

http://xz.meituan.com/meishi/4182990/

{"name": "一桶天下木桶饭", "address": "泉山区解放南路南都国际地下负一层矿大新街美食区M-013（近老矿大,易初爱莲）", "phone": "13092345666", "open_time": "周一至周日 09:00-22:00", "longitude": 117.196503, "latitude": 34.221683}

http://xz.meituan.com/meishi/6285115/

{"name": "第三空间咖啡融合菜", "address": "中国城院内", "phone": "0516-88321065", "open_time": "", "longitude": 117.9513, "latitude": 33.896744}

http://xz.meituan.com/meishi/6425926/

{"name": "Butter&Bread轻食餐厅（云龙万达店）", "address": "云龙区云龙和平大道58号万达广场3楼3065铺号（大歌星旁，近庆丰路）", "phone": "0516-87896000", "open_time": "", "longitude": 117.244219, "latitude": 34.253701}

http://xz.meituan.com/meishi/4608868/

{"name": "阿水.大杯茶", "address": "邳州市人民路宏大华联北侧得喜利店内，在机关幼儿园马路正对面50米左右", "phone": "15005227664", "open_time": "", "longitude": 117.963248, "latitude": 34.310428}

http://xz.meituan.com/meishi/42265137/

{"name": "仁和禾擀面皮陕西风味（万达百货店）", "address": "云龙区和平大道58号万达百货万达金街主街1层", "phone": "18251731113", "open_time": "周一至周日 08:00-21:00", "longitude": 117.245243, "latitude": 34.253033}

http://xz.meituan.com/meishi/5045090/

{"name": "溢品香黄焖鸡米饭（徐州总店）", "address": "泉山区矿大西门对面路口第二家", "phone": "0516-66671916", "open_time": "周一至周四 10:00-22:00  周五 08:00-22:00  周六 09:00-20:00", "longitude": 117.195167, "latitude": 34.219424}

http://xz.meituan.com/meishi/935906/

{"name": "元禧日式料理", "address": "鼓楼区彭城一号3号楼2楼（金鹰国际购物中心东门隔壁）", "phone": "0516-83717771", "open_time": "周一至周日 11:30-13:30 17:00-21:00  非营业时段 2018-02-15至2018-02-18 全天", "longitude": 117.187972, "latitude": 34.267927}

http://xz.meituan.com/meishi/4264815/

{"name": "彭城小地锅（矿大店）", "address": "泉山区解放南路矿大新街美食广场负一层", "phone": "18601414775", "open_time": "周一至周日 11:00-14:00 16:30-22:00", "longitude": 117.196189, "latitude": 34.221628}

http://xz.meituan.com/meishi/65069995/

{"name": "花妞披萨（苹果店）", "address": "鼓楼区北区祥和向北苹果汇邻湾广场二层", "phone": "0516-87661000", "open_time": "周一至周日 11:00-20:00", "longitude": 117.20768, "latitude": 34.30166}

http://xz.meituan.com/meishi/70408894/

{"name": "龙门花甲", "address": "工农路瓜果市场中段（凤鸣城）", "phone": "15152127666", "open_time": "周一至周日 09:00-22:00", "longitude": 116.600886, "latitude": 34.696679}

http://xz.meituan.com/meishi/6871138/

{"name": "悠仙美地（金鹰二店）", "address": "鼓楼区淮海西路270号金鹰购物中心4楼（人民广场）", "phone": "0516-81905088", "open_time": "周一至周日 11:00-20:00", "longitude": 117.162745, "latitude": 34.263656}

http://xz.meituan.com/meishi/42452324/

{"name": "徐家铺子（富国街店）", "address": "鼓楼区富国街9-1-101号（醒狮小区南门口）", "phone": "13814428964", "open_time": "周一至周日 08:00-22:30", "longitude": 117.184127, "latitude": 34.266325}

http://xz.meituan.com/meishi/935581/

{"name": "蓝枪鱼音乐西餐.酒吧", "address": "泉山区小南湖商业广场26幢", "phone": "0516-83886722", "open_time": "周一至周日 10:00-01:00", "longitude": 117.155284, "latitude": 34.230033}

http://xz.meituan.com/meishi/5105744/

{"name": "德克士财富餐厅（泰隆店）", "address": "鼓楼区泰隆商业街1号（京润发超市1楼）", "phone": "0516-81915757", "open_time": "周一至周日 09:00-21:00", "longitude": 117.271711, "latitude": 34.284545}

http://xz.meituan.com/meishi/5753733/

{"name": "正宗十三中水晶蛙鱼油泼面", "address": "鼓楼区永安街综合楼1号", "phone": "0516-85906019", "open_time": "周一至周日 08:00-20:30", "longitude": 117.173843, "latitude": 34.262945}

http://xz.meituan.com/meishi/41481532/

{"name": "北京汉丽轩烤肉涮锅自助餐厅（丰县店）", "address": "丰县人民路支农路交汇处招商场百意超市三楼", "phone": "0516-89321666", "open_time": "周一至周日 09:00-13:30 17:30-20:30", "longitude": 116.608807, "latitude": 34.694585}

http://xz.meituan.com/meishi/4374179/

{"name": "过桥缘（万达百货店）", "address": "云龙区和平大道58号云龙万达广场3层3062号", "phone": "0516-87877100", "open_time": "周一至周六 10:00-20:00", "longitude": 117.245844, "latitude": 34.253348}

http://xz.meituan.com/meishi/41551691/

{"name": "张姐烤肉拌饭", "address": "丰县人民东路北东关小学东门南侧路西（衣拉客旁）", "phone": "15949000853/15862194903", "open_time": "", "longitude": 116.602672, "latitude": 34.696401}

http://xz.meituan.com/meishi/40884040/

{"name": "亚诺咖啡", "address": "睢宁县青年路小玲人家隔壁", "phone": "0516-88342777", "open_time": "周一至周日 早市 08:30-00:00", "longitude": 117.947546, "latitude": 33.887393}

http://xz.meituan.com/meishi/77008659/

{"name": "南京鸭血粉丝汤", "address": "沛县东风西路百货大楼红绿灯东10米路北（京佳购物中心对面）", "phone": "18552886005", "open_time": "周一至周日 06:00-23:00", "longitude": 116.934839, "latitude": 34.734808}

http://xz.meituan.com/meishi/74033099/

{"name": "八喜串串麻辣烫", "address": "云龙区元和路绿地商务城LoftD座108商铺", "phone": "18151310369", "open_time": "周一至周日 10:00-21:00", "longitude": 117.287638, "latitude": 34.210036}

http://xz.meituan.com/meishi/62646133/

{"name": "棒的很！披萨工坊", "address": "鼓楼区中山北路金地中心写字楼北对面（徐州夜市地下）", "phone": "15062193078", "open_time": "周一至周日 09:30-22:30", "longitude": 117.187751, "latitude": 34.269478}

http://xz.meituan.com/meishi/64933971/

{"name": "乐享（沛县店）", "address": "沛县汉城路嘉禾手机二楼时尚地一街B3出口（嘉禾电讯广场二楼）", "phone": "0516-89658088", "open_time": "周一至周日 09:30-20:00", "longitude": 116.933472, "latitude": 34.731436}

http://xz.meituan.com/meishi/5785268/

{"name": "阿秦家味（金地店）", "address": "鼓楼区金地商都东门（彭城一号停车场南出口）", "phone": "0516-83713787", "open_time": "周一至周日 10:00-21:30  非营业时段 2018-02-15至2018-02-16 全天", "longitude": 117.187262, "latitude": 34.267471}

********第12页*********http://xz.meituan.com/meishi/pn12/[{'name': '帕兰朵儿烘焙（恒盛店）', 'ID': 67606896}, {'name': '大凤卷皮', 'ID': 76078076}, {'name': '润仟祥黄焖鸡米饭（矿大店）', 'ID': 4425876}, {'name': '忆碗香健康米线', 'ID': 6347505}, {'name': '古城烧烤', 'ID': 63601092}, {'name': '明哲家韩国料理（1818美食广场）', 'ID': 2422544}, {'name': '漫烤鱼（万达百货店）', 'ID': 4046823}, {'name': '鼎烧碳火烧肉（1818美食广场店）', 'ID': 69190573}, {'name': '鸡脚饭（和信广场店）', 'ID': 74739728}, {'name': '杨国福麻辣烫（新区店）', 'ID': 6157314}, {'name': '红延', 'ID': 62627964}, {'name': '九中牛记米线（博爱街店）', 'ID': 77871906}, {'name': '一杯时光西餐咖啡屋（万达百货店）', 'ID': 69740207}, {'name': '卤肉饭·鸡扒饭', 'ID': 70432673}, {'name': '觅恬记港式甜品（1818店）', 'ID': 83898200}, {'name': '松枝记滋蛋仔（莫沫南路沛县店）', 'ID': 97042520}, {'name': '非焗莫薯', 'ID': 94394218}, {'name': '多瑞小镇', 'ID': 101405483}, {'name': '越城记黑鱼煲（苏宁店）', 'ID': 150306969}, {'name': '豆逗婆土豆粉', 'ID': 152535673}, {'name': '正新鸡排（丰县店）', 'ID': 98863628}, {'name': '锅聚点单人地锅砂锅（万达百货店）', 'ID': 92662510}, {'name': '杨国福麻辣烫（香城路三店）', 'ID': 116375228}, {'name': '觅恬记港式甜品（铜山万达店）', 'ID': 156884870}, {'name': '秦云老太婆摊摊面（万达百货店）', 'ID': 159250987}, {'name': '澳典烘焙', 'ID': 108164827}, {'name': 'n多寿司（1818美食广场店）', 'ID': 94838444}, {'name': '风临坊黄焖鸡米饭', 'ID': 94491530}, {'name': '重庆李记串串香（中枢街店）', 'ID': 114959861}, {'name': '蜀大侠火锅（万达百货店）', 'ID': 115295863}, {'name': 'moze慕色音乐烧烤吧', 'ID': 98132958}, {'name': '太板一号', 'ID': 160290684}]

http://xz.meituan.com/meishi/67606896/

{"name": "帕兰朵儿烘焙（恒盛店）", "address": "鼓楼区恒盛广场大屏幕下方", "phone": "0516-66671220", "open_time": "周一至周日 10:00-24:00", "longitude": 117.160099, "latitude": 34.259036}

http://xz.meituan.com/meishi/76078076/

{"name": "大凤卷皮", "address": "泉山区少华街28号（大饼鸡店对面）", "phone": "15162188695", "open_time": "周一至周日 11:00-19:30", "longitude": 117.18426, "latitude": 34.264221}

http://xz.meituan.com/meishi/4425876/

{"name": "润仟祥黄焖鸡米饭（矿大店）", "address": "泉山区矿大新街美食006号（近矿大科技园）", "phone": "15950671210", "open_time": "周一至周日 09:00-21:00  非营业时段 2018-02-15至2018-02-19 全天", "longitude": 117.19669, "latitude": 34.222275}

http://xz.meituan.com/meishi/6347505/

{"name": "忆碗香健康米线", "address": "环城路147号十字路口东南福源国际一楼", "phone": "15250914058", "open_time": "周一至周日 08:00-20:30", "longitude": 117.195022, "latitude": 34.273773}

http://xz.meituan.com/meishi/63601092/

{"name": "古城烧烤", "address": "鼓楼区环城路烟厂红绿灯西南侧", "phone": "0516-83263888", "open_time": "周一至周日 10:00-24:00  非营业时段 2018-02-15至2018-02-16 全天", "longitude": 117.19983, "latitude": 34.27132}

http://xz.meituan.com/meishi/2422544/

{"name": "明哲家韩国料理（1818美食广场）", "address": "鼓楼区1818美食广场负一层", "phone": "0516-87878111", "open_time": "周一至周日 11:00-21:30", "longitude": 117.187661, "latitude": 34.269847}

http://xz.meituan.com/meishi/4046823/

{"name": "漫烤鱼（万达百货店）", "address": "云龙区和平大道58号万达百货万达金街D区1层", "phone": "0516-83830567", "open_time": "周一至周日 11:00-14:00 17:00-21:30  非营业时段 2018-02-15至2018-02-15 14:00-24:00", "longitude": 117.245243, "latitude": 34.253033}

http://xz.meituan.com/meishi/69190573/

{"name": "鼎烧碳火烧肉（1818美食广场店）", "address": "鼓楼区夹河东街1818美食广场二楼", "phone": "0516-83717969", "open_time": "周一至周日 11:00-21:00", "longitude": 117.1876, "latitude": 34.270508}

http://xz.meituan.com/meishi/74739728/

{"name": "鸡脚饭（和信广场店）", "address": "鼓楼区复兴北路和信广场金街内", "phone": "13852043229", "open_time": "非营业时段 2018-02-14至2018-02-18 全天", "longitude": 117.20349, "latitude": 34.268889}

http://xz.meituan.com/meishi/6157314/

{"name": "杨国福麻辣烫（新区店）", "address": "铜山新区步行街166号", "phone": "13701412545", "open_time": "周一至周日 09:00-00:00", "longitude": 117.181615, "latitude": 34.193313}

http://xz.meituan.com/meishi/62627964/

{"name": "红延", "address": "奎山街道解放南路219号祥悦大厦1楼（奎园南门）", "phone": "0516-83850177", "open_time": "周一至周日 全天", "longitude": 117.201959, "latitude": 34.230677}

http://xz.meituan.com/meishi/77871906/

{"name": "九中牛记米线（博爱街店）", "address": "泉山区杨家路13中银座佳驿酒店斜对面", "phone": "13013943190", "open_time": "", "longitude": 117.173613, "latitude": 34.260872}

http://xz.meituan.com/meishi/69740207/

{"name": "一杯时光西餐咖啡屋（万达百货店）", "address": "云龙区和平大道58号万达百货万达金街主街1层", "phone": "0516-83378955", "open_time": "非营业时段 2018-02-15至2018-02-17 全天", "longitude": 117.245243, "latitude": 34.253033}

http://xz.meituan.com/meishi/70432673/

{"name": "卤肉饭·鸡扒饭", "address": "泉山区老矿大西门西50米（百珍堂对面）", "phone": "13218800166", "open_time": "非营业时段 2018-02-14至2018-02-22 全天", "longitude": 117.19467, "latitude": 34.219205}

http://xz.meituan.com/meishi/83898200/

{"name": "觅恬记港式甜品（1818店）", "address": "鼓楼区夹河东街1818美食广场正门东行10米", "phone": "18151890327/18912030327", "open_time": "周一至周日 09:30-00:00", "longitude": 117.187863, "latitude": 34.270594}

http://xz.meituan.com/meishi/97042520/

{"name": "松枝记滋蛋仔（莫沫南路沛县店）", "address": "沛县汉城路嘉禾手机城女人街熙顺紫菜包饭西侧第八家", "phone": "15152084675", "open_time": "周一至周日 全天", "longitude": 116.933655, "latitude": 34.73137}

http://xz.meituan.com/meishi/94394218/

{"name": "非焗莫薯", "address": "文亭街淮海农商银行斜对面", "phone": "15996919769", "open_time": "周一至周日 10:00-20:30", "longitude": 117.18347, "latitude": 34.260926}

http://xz.meituan.com/meishi/101405483/

{"name": "多瑞小镇", "address": "睢宁县元府中路曼哈顿商业广场4楼", "phone": "15312665966", "open_time": "周一至周日 11:00-20:30", "longitude": 117.956283, "latitude": 33.899184}

http://xz.meituan.com/meishi/150306969/

{"name": "越城记黑鱼煲（苏宁店）", "address": "鼓楼区淮海路苏宁广场四楼409", "phone": "0516-83838817", "open_time": "周一至周日 11:00-21:00", "longitude": 117.188547, "latitude": 34.26557}

http://xz.meituan.com/meishi/152535673/

{"name": "豆逗婆土豆粉", "address": "铜山新区铜山万达金街北头入口处", "phone": "17315780525", "open_time": "周一至周日 全天", "longitude": 117.187778, "latitude": 34.192909}

http://xz.meituan.com/meishi/98863628/

{"name": "正新鸡排（丰县店）", "address": "丰县华地街华润苏果东100米路北", "phone": "17696541992", "open_time": "周一至周日 09:00-21:00", "longitude": 116.606529, "latitude": 34.695487}

http://xz.meituan.com/meishi/92662510/

{"name": "锅聚点单人地锅砂锅（万达百货店）", "address": "云龙区民祥园路万达广场1层金街3号门向南10米（樽寿司对面）", "phone": "18260728677", "open_time": "周一至周日 10:30-22:00", "longitude": 117.246223, "latitude": 34.253929}

http://xz.meituan.com/meishi/116375228/

{"name": "杨国福麻辣烫（香城路三店）", "address": "沛县香城路中段水星家纺对面", "phone": "18168255773", "open_time": "", "longitude": 116.935372, "latitude": 34.724235}

http://xz.meituan.com/meishi/156884870/

{"name": "觅恬记港式甜品（铜山万达店）", "address": "铜山新区铜山万达广场金街6号门出口向南10米", "phone": "15996967980", "open_time": "", "longitude": 117.187145, "latitude": 34.190985}

http://xz.meituan.com/meishi/159250987/

{"name": "秦云老太婆摊摊面（万达百货店）", "address": "云龙区和平大道58号万达百货万达金街5号门东第二家", "phone": "13626166342", "open_time": "周一至周日 09:00-21:30", "longitude": 117.24474, "latitude": 34.252609}

http://xz.meituan.com/meishi/108164827/

{"name": "澳典烘焙", "address": "解放路94号人民广场西侧（运东派出所向南40米）", "phone": "0516-86086688", "open_time": "周一至周日 07:00-21:30", "longitude": 117.971289, "latitude": 34.311519}

http://xz.meituan.com/meishi/94838444/

{"name": "n多寿司（1818美食广场店）", "address": "鼓楼区1818美食广场东面莲年烤鱼旁边", "phone": "13805218445", "open_time": "", "longitude": 117.187199, "latitude": 34.26982}

http://xz.meituan.com/meishi/94491530/

{"name": "风临坊黄焖鸡米饭", "address": "鼓楼区和信广场一期家乐福隔壁金街内", "phone": "15852184360/13905212428", "open_time": "非营业时段 2018-02-15至2018-02-17 全天", "longitude": 117.201632, "latitude": 34.268274}

http://xz.meituan.com/meishi/114959861/

{"name": "重庆李记串串香（中枢街店）", "address": "鼓楼区中枢街98号楼（宅吉寿司，青辰甜点对面）", "phone": "18252105656/15152459326", "open_time": "周一至周日 11:30-14:00 17:00-21:30  非营业时段 2018-02-13至2018-02-20 全天", "longitude": 117.182227, "latitude": 34.262663}

http://xz.meituan.com/meishi/115295863/

{"name": "蜀大侠火锅（万达百货店）", "address": "云龙区和平大道58号万达百货3层", "phone": "0516-83768587", "open_time": "周一至周日 09:00-21:00", "longitude": 117.245243, "latitude": 34.253033}

http://xz.meituan.com/meishi/98132958/

{"name": "moze慕色音乐烧烤吧", "address": "鼓楼区大庆路二七农贸市场正对面（共享网络隔壁）", "phone": "0516-83792555/18805200060", "open_time": "", "longitude": 117.211802, "latitude": 34.275896}

http://xz.meituan.com/meishi/160290684/

{"name": "太板一号", "address": "鼓楼区河清路二中东100米税务局南对面", "phone": "0516-69608283", "open_time": "周一至周日 09:00-22:00", "longitude": 117.190578, "latitude": 34.266099}

********第13页*********http://xz.meituan.com/meishi/pn13/[{'name': '俏街餐厅（万达百货店）', 'ID': 156773381}, {'name': '四川香天下火锅（铜山万达店）', 'ID': 116700289}, {'name': '初见西式简餐', 'ID': 99693271}, {'name': '炉食印象烧烤俱乐部', 'ID': 156877530}, {'name': '客莱克汉堡（三十一中店）', 'ID': 112250582}, {'name': '赖胖子肉蟹煲（1818广场店）', 'ID': 121525267}, {'name': '莱茵河畔烘焙（新沂店）', 'ID': 93367000}, {'name': '老船长泡芙（刘湾店）', 'ID': 115309673}, {'name': '小蛮牛潮汕鲜牛肉火锅', 'ID': 123402869}, {'name': '和风屋便当', 'ID': 73240729}, {'name': '犟骨头排骨饭', 'ID': 152536387}, {'name': '沐多格披萨（师大店）', 'ID': 90506991}, {'name': '叫个肉夹馍', 'ID': 76491762}, {'name': '古沛小地锅（福泰隆店）', 'ID': 76351801}, {'name': '过路人台湾饭团 和信店', 'ID': 156635410}, {'name': '皇记煌御品三汁焖锅', 'ID': 157232894}, {'name': '稻花香里瓦锅饭专家', 'ID': 118366066}, {'name': '萨公主现烤披萨', 'ID': 115061856}, {'name': '金源烧烤', 'ID': 95514745}, {'name': '涮盟自助小火锅', 'ID': 152814563}, {'name': '分米鸡（万达百货店）', 'ID': 156677366}, {'name': '阿姨很芒（1818店）', 'ID': 71069519}, {'name': '老北京涮肉', 'ID': 109742974}, {'name': '无敌蛙爆烧牛蛙', 'ID': 156650489}, {'name': '牛蛙君·炭烧牛蛙锅', 'ID': 101137725}, {'name': '梧桐咖啡（邳州亚诺二店）', 'ID': 90067077}, {'name': '七欣天品蟹轩', 'ID': 107247726}, {'name': '杨国福麻辣烫（邳州总店）', 'ID': 66806878}, {'name': '抹茶小姐（宏大店）', 'ID': 97336645}, {'name': '50岚奶茶（富国街店）', 'ID': 107348492}, {'name': '二妮菜煎饼（和信广场店）', 'ID': 82501735}, {'name': '过路人台湾饭团', 'ID': 116041333}]

http://xz.meituan.com/meishi/156773381/

{"name": "俏街餐厅（万达百货店）", "address": "云龙区和平大道58号万达百货3层", "phone": "0516-87888085/13375135916", "open_time": "周一至周日 11:00-21:00", "longitude": 117.245243, "latitude": 34.253033}

http://xz.meituan.com/meishi/116700289/

{"name": "四川香天下火锅（铜山万达店）", "address": "铜山新区铜山万达广场南门金街2楼", "phone": "0516-85089888", "open_time": "周一至周日 11:30-23:00", "longitude": 117.187554, "latitude": 34.189374}

http://xz.meituan.com/meishi/99693271/

{"name": "初见西式简餐", "address": "鼓楼区荆马路与殷庄路交叉口汇邻湾广场二楼", "phone": "0516-87760099/17712004715", "open_time": "非营业时段 2018-02-15至2018-02-15 18:00-24:00", "longitude": 117.207204, "latitude": 34.300972}

http://xz.meituan.com/meishi/156877530/

{"name": "炉食印象烧烤俱乐部", "address": "铜山新区上海路与海河路交叉路口东北角（湖湘毛家菜北隔壁）", "phone": "18951359263", "open_time": "周一至周日 09:00-00:00", "longitude": 117.186093, "latitude": 34.193878}

http://xz.meituan.com/meishi/112250582/

{"name": "客莱克汉堡（三十一中店）", "address": "鼓楼区湖滨工农南路俊苑小区2号楼门面三十一中店", "phone": "0516-85812227", "open_time": "周一至周日 09:00-21:00", "longitude": 117.150593, "latitude": 34.25631}

http://xz.meituan.com/meishi/121525267/

{"name": "赖胖子肉蟹煲（1818广场店）", "address": "鼓楼区1818美食广场负一楼东南角入口处（漫烤鱼东面20米）", "phone": "0516-83729997/18112209997", "open_time": "周一至周日 10:00-22:00  非营业时段 2018-02-15至2018-02-17 全天", "longitude": 117.188302, "latitude": 34.270009}

http://xz.meituan.com/meishi/93367000/

{"name": "莱茵河畔烘焙（新沂店）", "address": "利民南路锦绣名苑东首", "phone": "0516-88998878", "open_time": "", "longitude": 118.356256, "latitude": 34.363387}

http://xz.meituan.com/meishi/115309673/

{"name": "老船长泡芙（刘湾店）", "address": "金山桥开发区东三环刘湾百惠家美时南50米", "phone": "17712975653", "open_time": "", "longitude": 117.240586, "latitude": 34.31968}

http://xz.meituan.com/meishi/123402869/

{"name": "小蛮牛潮汕鲜牛肉火锅", "address": "民主南路78号（格林豪泰南，新旺角二楼）", "phone": "0516-85863999", "open_time": "", "longitude": 117.19651, "latitude": 34.25493}

http://xz.meituan.com/meishi/73240729/

{"name": "和风屋便当", "address": "鼓楼区金地商都北街1-115号（海澜之家和李宁专卖店中间巷内）", "phone": "0516-83737776", "open_time": "非营业时段 2018-02-15至2018-02-15 全天", "longitude": 117.186811, "latitude": 34.268669}

http://xz.meituan.com/meishi/152536387/

{"name": "犟骨头排骨饭", "address": "铜山新区铜山万达金街8号门对面", "phone": "15162134451", "open_time": "", "longitude": 117.187173, "latitude": 34.191695}

http://xz.meituan.com/meishi/90506991/

{"name": "沐多格披萨（师大店）", "address": "铜山新区师范大学科文学院泊客街鸭血粉丝隔壁（师大科文学院门口往南拐往前50米）", "phone": "15715207554/15996861876", "open_time": "周一至周日 09:00-21:00  非营业时段 2018-02-02至2018-02-28 全天", "longitude": 117.179563, "latitude": 34.193883}

http://xz.meituan.com/meishi/76491762/

{"name": "叫个肉夹馍", "address": "鼓楼区金地国际金街徐州夜市内", "phone": "18112021723", "open_time": "非营业时段 2018-02-09至2018-03-02 全天", "longitude": 117.186877, "latitude": 34.269282}

http://xz.meituan.com/meishi/76351801/

{"name": "古沛小地锅（福泰隆店）", "address": "沛县福泰隆有意思南对面（沙县小吃隔壁）", "phone": "18752587280", "open_time": "", "longitude": 116.932319, "latitude": 34.732488}

http://xz.meituan.com/meishi/156635410/

{"name": "过路人台湾饭团 和信店", "address": "鼓楼区复兴北路和信广场对面13路公交车总站台旁", "phone": "18626025576", "open_time": "", "longitude": 117.204163, "latitude": 34.267741}

http://xz.meituan.com/meishi/157232894/

{"name": "皇记煌御品三汁焖锅", "address": "铜山新区北京北路万达金街7号门出口对面", "phone": "13685149958", "open_time": "", "longitude": 117.188335, "latitude": 34.191226}

http://xz.meituan.com/meishi/118366066/

{"name": "稻花香里瓦锅饭专家", "address": "鼓楼区淮海西路270号金鹰购物中心人民广场店一楼超市美食街入口", "phone": "18652189966", "open_time": "", "longitude": 117.162871, "latitude": 34.264545}

http://xz.meituan.com/meishi/115061856/

{"name": "萨公主现烤披萨", "address": "睢宁县万象天地一楼老凤祥向西50米", "phone": "18112217006", "open_time": "", "longitude": 117.94938, "latitude": 33.902121}

http://xz.meituan.com/meishi/95514745/

{"name": "金源烧烤", "address": "鼓楼区中枢街64号", "phone": "15895220081", "open_time": "", "longitude": 117.183773, "latitude": 34.262703}

http://xz.meituan.com/meishi/152814563/

{"name": "涮盟自助小火锅", "address": "铜山新区万达金街北门一楼9号门对面", "phone": "15852143196/18260722327", "open_time": "周一至周日 11:30-21:30", "longitude": 117.186763, "latitude": 34.1926}

http://xz.meituan.com/meishi/156677366/

{"name": "分米鸡（万达百货店）", "address": "云龙区云龙万达金街五号停车场入口正对面分米鸡", "phone": "18168477680", "open_time": "周一至周日 09:30-21:30", "longitude": 117.244727, "latitude": 34.254129}

http://xz.meituan.com/meishi/71069519/

{"name": "阿姨很芒（1818店）", "address": "鼓楼区1818美食广场1层北门电梯口", "phone": "18136007066", "open_time": "周一至周日 10:00-23:00", "longitude": 117.187532, "latitude": 34.27042}

http://xz.meituan.com/meishi/109742974/

{"name": "老北京涮肉", "address": "邳州市民主路飞翔网咖西20米（老财政局东侧）", "phone": "15052058329", "open_time": "", "longitude": 117.969026, "latitude": 34.308598}

http://xz.meituan.com/meishi/156650489/

{"name": "无敌蛙爆烧牛蛙", "address": "鼓楼区1818美食广场一楼", "phone": "0516-83718181", "open_time": "周一至周日 10:30-21:00", "longitude": 117.187685, "latitude": 34.270425}

http://xz.meituan.com/meishi/101137725/

{"name": "牛蛙君·炭烧牛蛙锅", "address": "鼓楼区彭城一号二号楼三楼原韩食刻", "phone": "0516-83600899", "open_time": "周五至周日 11:00-21:00  周一至周四 11:00-14:00 17:00-21:00  非营业时段 2018-02-15至2018-02-16 00:00-16:00", "longitude": 117.187885, "latitude": 34.267772}

http://xz.meituan.com/meishi/90067077/

{"name": "梧桐咖啡（邳州亚诺二店）", "address": "邳州市珠江东路金御祥苑二期（印象珠江南门对面）", "phone": "0516-86555588", "open_time": "", "longitude": 117.975101, "latitude": 34.322361}

http://xz.meituan.com/meishi/107247726/

{"name": "七欣天品蟹轩", "address": "鼓楼区夹河东街1818美食广场斜对面", "phone": "0516-83956777", "open_time": "周一至周日 09:00-05:00  非营业时段 2018-02-13至2018-02-20 全天", "longitude": 117.188611, "latitude": 34.271094}

http://xz.meituan.com/meishi/66806878/

{"name": "杨国福麻辣烫（邳州总店）", "address": "建设南路同盛广场欢乐买生活广场对面", "phone": "13615170617", "open_time": "周一至周日 早午餐 09:00-14:00 下午茶 14:00-16:00 晚市 16:00-21:00 夜宵 21:00-00:00", "longitude": 117.962881, "latitude": 34.315892}

http://xz.meituan.com/meishi/97336645/

{"name": "抹茶小姐（宏大店）", "address": "宏大财富中心圆盘西出口（衣着馆后面）", "phone": "18762222043", "open_time": "周一至周日 08:00-23:30", "longitude": 117.961009, "latitude": 34.310883}

http://xz.meituan.com/meishi/107348492/

{"name": "50岚奶茶（富国街店）", "address": "鼓楼区福顺路醒狮小区（第一中学南）", "phone": "15665169099", "open_time": "周一至周日 10:00-22:00", "longitude": 117.182974, "latitude": 34.267373}

http://xz.meituan.com/meishi/82501735/

{"name": "二妮菜煎饼（和信广场店）", "address": "和信广场购物中心西门正对面", "phone": "18168789588/18805216866", "open_time": "周一至周日 07:00-22:00", "longitude": 117.201848, "latitude": 34.268297}

http://xz.meituan.com/meishi/116041333/

{"name": "过路人台湾饭团", "address": "鼓楼区金地云街一点点西侧30米（江户前寿司对面）", "phone": "13395291721/15162297170", "open_time": "周一至周日 09:00-21:00", "longitude": 117.186667, "latitude": 34.268945}

********第14页*********http://xz.meituan.com/meishi/pn14/[{'name': '春风十里文艺餐厅', 'ID': 105259458}, {'name': '载沅家炒酸奶（万达百货店）', 'ID': 99962714}, {'name': '严厨老坛酸菜鱼（和信店）', 'ID': 84066407}, {'name': '十五号泡馍（云龙万达店）', 'ID': 74805372}, {'name': '国味双喜家宴', 'ID': 90047340}, {'name': '堡莱乐（西苑一店）', 'ID': 157856092}, {'name': '阿龙家鸡汤馆', 'ID': 106242373}, {'name': '叉烧大王·饭', 'ID': 97704099}, {'name': '张亮麻辣烫（苏宁广场店）', 'ID': 153640709}, {'name': '外婆老灶（和信店）', 'ID': 85406590}, {'name': '多嘴肉蟹煲（万达百货店）', 'ID': 80113879}, {'name': '盛筵民国文化主题餐厅', 'ID': 127389033}, {'name': '二妮菜煎饼（新淮海路店）', 'ID': 96996870}, {'name': '小龙坎老火锅（世茂店）', 'ID': 150374571}, {'name': '多瑞小镇时尚西餐厅（新沂店）', 'ID': 106445815}, {'name': '黄记煌三汁焖锅（苏宁广场店）', 'ID': 157180359}, {'name': '小蹄大作（市中心店）', 'ID': 157865006}, {'name': '觅恬记港式甜品（云龙万达店）', 'ID': 157090708}, {'name': '潮辣潮人火锅（铜山万达店）', 'ID': 115956010}, {'name': '探鱼（苏宁广场店）', 'ID': 113463822}, {'name': '秦云老太婆摊摊面（福源店）', 'ID': 97480925}, {'name': '虎先森de寿司店', 'ID': 117674004}, {'name': '徐州宴·穿越（西安北路店）', 'ID': 98866199}, {'name': '美食记', 'ID': 157742697}, {'name': '老巷口米线（云龙万达店）', 'ID': 91179316}, {'name': '伊豆日本料理', 'ID': 152303273}, {'name': '幸福西饼', 'ID': 116796339}, {'name': '小树林咖啡休闲吧', 'ID': 112227711}, {'name': '无邪日式抹茶甜品', 'ID': 156741722}, {'name': '逗锅焖锅焖面', 'ID': 70098843}, {'name': '沛丰羊肉汤', 'ID': 91376911}, {'name': '鹿鼎记麻辣烫（永安街店）', 'ID': 95875515}]

http://xz.meituan.com/meishi/105259458/

{"name": "春风十里文艺餐厅", "address": "邳州市珠江东路金御祥苑二期正对面（珠江东路与福州路交叉口向东50米印象珠江南门）", "phone": "18652152386/15606202608", "open_time": "周一至周日 10:30-22:30", "longitude": 117.974928, "latitude": 34.322818}

http://xz.meituan.com/meishi/99962714/

{"name": "载沅家炒酸奶（万达百货店）", "address": "云龙区和平大道58号万达百货3层", "phone": "15162171650", "open_time": "周一至周日 09:00-21:30", "longitude": 117.245243, "latitude": 34.253033}

http://xz.meituan.com/meishi/84066407/

{"name": "严厨老坛酸菜鱼（和信店）", "address": "鼓楼区复兴北路和信广场5楼", "phone": "0516-80568877", "open_time": "周一至周日 10:00-24:00", "longitude": 117.203503, "latitude": 34.26816}

http://xz.meituan.com/meishi/74805372/

{"name": "十五号泡馍（云龙万达店）", "address": "云龙区云龙万达广场7号门东15米", "phone": "13092311688", "open_time": "周一至周日 09:00-21:30", "longitude": 117.247023, "latitude": 34.254042}

http://xz.meituan.com/meishi/90047340/

{"name": "国味双喜家宴", "address": "三环南路工程学院斜对面中国石油加气站旁往北200米路西铁路林场内", "phone": "0516-83359888/85881999", "open_time": "周一至周日 10:30-13:30 16:30-22:00", "longitude": 117.216986, "latitude": 34.21443}

http://xz.meituan.com/meishi/157856092/

{"name": "堡莱乐（西苑一店）", "address": "泉山区黄河南路与水漫桥路交叉口老回归对面", "phone": "0516-85555185", "open_time": "", "longitude": 117.153159, "latitude": 34.27433}

http://xz.meituan.com/meishi/106242373/

{"name": "阿龙家鸡汤馆", "address": "万达西门向北500米，馨园小区西门口隔壁", "phone": "0516-83330689", "open_time": "周三 06:00-21:00", "longitude": 117.2437, "latitude": 34.255989}

http://xz.meituan.com/meishi/97704099/

{"name": "叉烧大王·饭", "address": "鼓楼区市中心1818美食广场停车场东入口下坡", "phone": "0516-83700050", "open_time": "周一至周日 09:00-21:00  非营业时段 2018-02-15至2018-02-22 全天", "longitude": 117.188161, "latitude": 34.270047}

http://xz.meituan.com/meishi/153640709/

{"name": "张亮麻辣烫（苏宁广场店）", "address": "鼓楼区黄楼街道办事处锦绣茗都商铺北4", "phone": "18151829599", "open_time": "周一至周日 10:00-21:00", "longitude": 117.190982, "latitude": 34.265225}

http://xz.meituan.com/meishi/85406590/

{"name": "外婆老灶（和信店）", "address": "鼓楼区和信广场五楼", "phone": "0516-80568578", "open_time": "周六,周日 10:30-21:30  周一至周五 10:30-14:00 16:30-21:00", "longitude": 117.20258, "latitude": 34.26781}

http://xz.meituan.com/meishi/80113879/

{"name": "多嘴肉蟹煲（万达百货店）", "address": "云龙区和平大道58号万达百货3层", "phone": "0516-83100088", "open_time": "周一至周日 11:00-21:00", "longitude": 117.245243, "latitude": 34.253033}

http://xz.meituan.com/meishi/127389033/

{"name": "盛筵民国文化主题餐厅", "address": "矿山西路尚客优酒店隔壁", "phone": "0516-85867777", "open_time": "周一至周日 09:00-21:00", "longitude": 117.128729, "latitude": 34.266386}

http://xz.meituan.com/meishi/96996870/

{"name": "二妮菜煎饼（新淮海路店）", "address": "鼓楼区段庄园盘道新淮海路方向向西50米路北", "phone": "15252028161", "open_time": "周一至周日 07:00-20:30  非营业时段 2018-02-15至2018-02-19 全天", "longitude": 117.156917, "latitude": 34.262136}

http://xz.meituan.com/meishi/150374571/

{"name": "小龙坎老火锅（世茂店）", "address": "云龙区兵马俑路世茂广场外街5号楼美音KTV楼下", "phone": "0516-83566717", "open_time": "周一至周日 11:00-02:00", "longitude": 117.22168, "latitude": 34.2424}

http://xz.meituan.com/meishi/106445815/

{"name": "多瑞小镇时尚西餐厅（新沂店）", "address": "新沂市钟吾路锦绣华庭西侧门面房（钟吾路与锦绣步行街交叉口向南10米）", "phone": "18361576767", "open_time": "", "longitude": 118.352655, "latitude": 34.365572}

http://xz.meituan.com/meishi/157180359/

{"name": "黄记煌三汁焖锅（苏宁广场店）", "address": "鼓楼区苏宁广场5楼", "phone": "0516-81006696", "open_time": "周一至周日 10:00-21:00", "longitude": 117.189166, "latitude": 34.265617}

http://xz.meituan.com/meishi/157865006/

{"name": "小蹄大作（市中心店）", "address": "鼓楼区淮海西路凤凰书城西隔壁（国美电器正对面）", "phone": "15250946801", "open_time": "周一至周日 10:30-21:30", "longitude": 117.184074, "latitude": 34.263378}

http://xz.meituan.com/meishi/157090708/

{"name": "觅恬记港式甜品（云龙万达店）", "address": "云龙区和平大道58号万达百货万达金街主街1层（5号门向西10米）", "phone": "17788375218/18151890327", "open_time": "", "longitude": 117.245243, "latitude": 34.253033}

http://xz.meituan.com/meishi/115956010/

{"name": "潮辣潮人火锅（铜山万达店）", "address": "铜山新区同昌西路49号-102号（水晶宫KTV北30米）", "phone": "0516-83305917", "open_time": "周一至周日 11:00-22:00", "longitude": 117.185389, "latitude": 34.188591}

http://xz.meituan.com/meishi/113463822/

{"name": "探鱼（苏宁广场店）", "address": "鼓楼区苏宁广场5F501", "phone": "0516-85856888", "open_time": "周一至周日 11:00-21:00", "longitude": 117.188445, "latitude": 34.265588}

http://xz.meituan.com/meishi/97480925/

{"name": "秦云老太婆摊摊面（福源店）", "address": "福源国际广场一楼底商（屈臣氏隔壁）", "phone": "0516-69919683", "open_time": "周一至周日 10:00-21:00  非营业时段 2018-02-09至2018-02-09 14:00-24:00 2018-02-15至2018-02-18 全天", "longitude": 117.19286, "latitude": 34.273329}

http://xz.meituan.com/meishi/117674004/

{"name": "虎先森de寿司店", "address": "铜山新区师范大学南京路步行街北头悦客便利店北隔壁", "phone": "15262078166", "open_time": "周一至周日 09:30-22:30", "longitude": 117.18147, "latitude": 34.19438}

http://xz.meituan.com/meishi/98866199/

{"name": "徐州宴·穿越（西安北路店）", "address": "西安北路186号（近铜沛路口）", "phone": "0516-85625999", "open_time": "周一至周日 10:30-14:00 16:30-21:00", "longitude": 117.175907, "latitude": 34.275857}

http://xz.meituan.com/meishi/157742697/

{"name": "美食记", "address": "鼓楼区彭城路苏宁广场5楼", "phone": "0516-83708123", "open_time": "周一至周日 09:00-21:00", "longitude": 117.188488, "latitude": 34.265611}

http://xz.meituan.com/meishi/91179316/

{"name": "老巷口米线（云龙万达店）", "address": "云龙区民祥园路万达广场（民祥大厦斜对面）", "phone": "18952153825", "open_time": "", "longitude": 117.243921, "latitude": 34.254949}

http://xz.meituan.com/meishi/152303273/

{"name": "伊豆日本料理", "address": "铜山新区万达南门金街二环一楼180号（万达广场五号门出口对面即到）", "phone": "18921770699/18912028719", "open_time": "周一至周日 10:00-21:00", "longitude": 117.187635, "latitude": 34.190031}

http://xz.meituan.com/meishi/116796339/

{"name": "幸福西饼", "address": "鼓楼区振兴大道与福泽路交口坡里安置区A区汉德商业广场西南角B1-B2", "phone": "0516-87892282/400-999-6666", "open_time": "周一至周日 08:00-18:30", "longitude": 117.283956, "latitude": 34.278624}

http://xz.meituan.com/meishi/112227711/

{"name": "小树林咖啡休闲吧", "address": "新沂市南京路肯德基北门西侧（南京路农村商业银行北侧向西20米）", "phone": "18260753531", "open_time": "周一至周日 11:00-22:00", "longitude": 118.353037, "latitude": 34.372614}

http://xz.meituan.com/meishi/156741722/

{"name": "无邪日式抹茶甜品", "address": "鼓楼区彭城一号屈臣氏东隔壁", "phone": "17751996825", "open_time": "周一至周日 11:00-23:00", "longitude": 117.188092, "latitude": 34.267048}

http://xz.meituan.com/meishi/70098843/

{"name": "逗锅焖锅焖面", "address": "泉山区富国街福顺路3号（占记鸭脖对面）", "phone": "0516-85588722", "open_time": "周一至周日 10:00-22:00", "longitude": 117.182821, "latitude": 34.264753}

http://xz.meituan.com/meishi/91376911/

{"name": "沛丰羊肉汤", "address": "中山北路与马场湖路十字路口西南角（迪家酒店，老同仁居）", "phone": "13775962826", "open_time": "周一至周日 07:00-21:00", "longitude": 117.189827, "latitude": 34.292633}

http://xz.meituan.com/meishi/95875515/

{"name": "鹿鼎记麻辣烫（永安街店）", "address": "鼓楼区永安街13中向北100米路西", "phone": "13338962182", "open_time": "周一至周日 10:30-21:30", "longitude": 117.17324, "latitude": 34.26196}

********第15页*********http://xz.meituan.com/meishi/pn15/[{'name': '鲜到先蒸', 'ID': 107685669}, {'name': '多瑞小镇（铜山万达店）', 'ID': 100032611}, {'name': '美滋姆汉堡（恒盛店）', 'ID': 115923683}, {'name': '辣有道五味锅麻辣香锅', 'ID': 90594943}, {'name': '小白兔萧县卷面皮蛙鱼牛筋面', 'ID': 91094504}, {'name': '红唇花甲米线', 'ID': 98820529}, {'name': '妯娌老鸭粉丝汤（万达百货店）', 'ID': 70215720}, {'name': '麦顿堡（富国街店）', 'ID': 118872223}, {'name': '50岚奶茶（彭城壹号店）', 'ID': 95651294}, {'name': '苏格披萨奶茶', 'ID': 80871301}, {'name': '日当午淮南牛肉汤', 'ID': 90452365}, {'name': '渝味晓宇火锅', 'ID': 105663281}, {'name': '萨公主', 'ID': 103623398}, {'name': '法克莱（范楼店）', 'ID': 96719013}, {'name': '孟家卷面皮（朝阳市场第二分店）', 'ID': 92744821}, {'name': '慕喜客蛋糕王', 'ID': 156617809}, {'name': '巴帝南美烤肉·巴西烤肉', 'ID': 159176484}, {'name': '辣食尚麻辣香锅（潮尚汇美食广场店）', 'ID': 91646858}, {'name': '80小馆潮汕鲜牛肉火锅', 'ID': 105230026}, {'name': '金缔米线', 'ID': 156645535}, {'name': '乐事多炸鸡汉堡（袁桥店）', 'ID': 92195458}, {'name': '花美喃烘焙工坊', 'ID': 109648823}, {'name': '韩千炉自助烤肉火锅', 'ID': 99331554}, {'name': '睢宁卷皮（邳州分店）', 'ID': 90694729}, {'name': '秦云老太婆摊摊面（富国街店）', 'ID': 74275198}, {'name': '漾漾好四云奶盖贡茶（彭城一号店）', 'ID': 96866757}, {'name': '夏家臭豆腐（富国街店）', 'ID': 92501770}, {'name': '方燕烤猪蹄（金地店）', 'ID': 158689438}, {'name': '外婆老灶（铜山万达店）', 'ID': 110630126}, {'name': '陈阿姨的店', 'ID': 90848493}, {'name': '久贺日式炭火烤肉（云龙万达店）', 'ID': 101235853}, {'name': '楊国福麻辣烫（香港街一店）', 'ID': 83818347}]

http://xz.meituan.com/meishi/107685669/

{"name": "鲜到先蒸", "address": "鼓楼区民主北路1818美食广场二楼黄记煌隔壁", "phone": "15105210849", "open_time": "周一至周日 10:30-14:00 16:30-21:30  非营业时段 2018-02-15至2018-02-16 全天", "longitude": 117.187669, "latitude": 34.270529}

http://xz.meituan.com/meishi/100032611/

{"name": "多瑞小镇（铜山万达店）", "address": "铜山新区北京北路万达广场3楼3020号", "phone": "0516-83500985", "open_time": "周一至周日 10:00-21:00  非营业时段 2018-02-15至2018-02-15 全天", "longitude": 117.188827, "latitude": 34.191988}

http://xz.meituan.com/meishi/115923683/

{"name": "美滋姆汉堡（恒盛店）", "address": "泉山区恒盛广场最西侧益丰大药房南隔壁", "phone": "18118525888", "open_time": "周一至周日 08:00-00:00", "longitude": 117.158231, "latitude": 34.259085}

http://xz.meituan.com/meishi/90594943/

{"name": "辣有道五味锅麻辣香锅", "address": "鼓楼区和信广场金街一楼家乐福西门正对面", "phone": "15152142323", "open_time": "", "longitude": 117.201564, "latitude": 34.268452}

http://xz.meituan.com/meishi/91094504/

{"name": "小白兔萧县卷面皮蛙鱼牛筋面", "address": "泉山区西苑中路西苑菜市场西门南50米路西（三阳春宾馆对面）", "phone": "15178280777/18726331144", "open_time": "周一至周日 10:00-19:00", "longitude": 117.14524, "latitude": 34.27192}

http://xz.meituan.com/meishi/98820529/

{"name": "红唇花甲米线", "address": "彭城路户部山南江苏银行斜对面", "phone": "13952180362", "open_time": "非营业时段 2018-02-16至2018-02-16 全天", "longitude": 117.188377, "latitude": 34.254642}

http://xz.meituan.com/meishi/70215720/

{"name": "妯娌老鸭粉丝汤（万达百货店）", "address": "云龙区和平大道58号万达百货3层", "phone": "13776588738/18136033318", "open_time": "", "longitude": 117.245243, "latitude": 34.253033}

http://xz.meituan.com/meishi/118872223/

{"name": "麦顿堡（富国街店）", "address": "鼓楼区富国街红绿灯十字路口西南角", "phone": "0516-85580880", "open_time": "周一至周日 08:00-24:00", "longitude": 117.182778, "latitude": 34.265911}

http://xz.meituan.com/meishi/95651294/

{"name": "50岚奶茶（彭城壹号店）", "address": "鼓楼区彭城一号辛汁味一楼哈根达斯对面", "phone": "17327371083", "open_time": "", "longitude": 117.187791, "latitude": 34.267306}

http://xz.meituan.com/meishi/80871301/

{"name": "苏格披萨奶茶", "address": "鼓楼区金山桥泰隆商业街格林豪泰酒店正对面", "phone": "13914828834", "open_time": "周一至周五 10:00-21:30  周六,周日 09:30-22:00  非营业时段 2018-02-15至2018-02-19 全天", "longitude": 117.271992, "latitude": 34.284479}

http://xz.meituan.com/meishi/90452365/

{"name": "日当午淮南牛肉汤", "address": "王陵街道王陵路68号开发大厦对面", "phone": "15895217396", "open_time": "", "longitude": 117.184472, "latitude": 34.256512}

http://xz.meituan.com/meishi/105663281/

{"name": "渝味晓宇火锅", "address": "鼓楼区夹河街1818美食广场二楼", "phone": "0516-83706766", "open_time": "周一至周日 10:30-21:30  非营业时段 2018-02-15至2018-02-15 全天", "longitude": 117.1872, "latitude": 34.270238}

http://xz.meituan.com/meishi/103623398/

{"name": "萨公主", "address": "丰县育红巷东关小学东门南100米路东", "phone": "15250936033", "open_time": "周一至周日 09:00-21:00", "longitude": 116.60318, "latitude": 34.695803}

http://xz.meituan.com/meishi/96719013/

{"name": "法克莱（范楼店）", "address": "范楼镇农贸市场斜对面", "phone": "0516-89298002/18352233773", "open_time": "周一至周日 10:00-20:00", "longitude": 116.850931, "latitude": 34.479932}

http://xz.meituan.com/meishi/92744821/

{"name": "孟家卷面皮（朝阳市场第二分店）", "address": "泉山区黄河南路西苑小吃城4号（北大门）", "phone": "18205213880/15005214839", "open_time": "周一至周日 10:00-19:30", "longitude": 117.146501, "latitude": 34.272799}

http://xz.meituan.com/meishi/156617809/

{"name": "慕喜客蛋糕王", "address": "鼓楼区淮海路崇真堂隔壁n多寿司后方", "phone": "18252430947", "open_time": "周一至周日 09:00-23:00", "longitude": 117.180377, "latitude": 34.263321}

http://xz.meituan.com/meishi/159176484/

{"name": "巴帝南美烤肉·巴西烤肉", "address": "中山南路80号（中山饭店路西公交站台后、原里约人巴西烤肉）", "phone": "0516-85703111", "open_time": "周一至周日 午市 11:00-14:30 晚市 17:30-21:00", "longitude": 117.185664, "latitude": 34.25703}

http://xz.meituan.com/meishi/91646858/

{"name": "辣食尚麻辣香锅（潮尚汇美食广场店）", "address": "新苏潮尚汇美食广场三楼", "phone": "15621111100", "open_time": "", "longitude": 117.975993, "latitude": 34.328947}

http://xz.meituan.com/meishi/105230026/

{"name": "80小馆潮汕鲜牛肉火锅", "address": "铜山新区上海路15号邮电局南20米路西", "phone": "0516-83195555", "open_time": "周一至周日 09:00-23:00  非营业时段 2018-02-15至2018-02-15 全天", "longitude": 117.185013, "latitude": 34.188601}

http://xz.meituan.com/meishi/156645535/

{"name": "金缔米线", "address": "鼓楼区金地商都美食一条街1-106号海澜之家向东20米路南", "phone": "13615108920", "open_time": "周一至周日 全天", "longitude": 117.186531, "latitude": 34.269409}

http://xz.meituan.com/meishi/92195458/

{"name": "乐事多炸鸡汉堡（袁桥店）", "address": "彭城街道民主南路4号", "phone": "0516-80202939/13626163974", "open_time": "周一至周日 09:00-21:30", "longitude": 117.196425, "latitude": 34.25322}

http://xz.meituan.com/meishi/109648823/

{"name": "花美喃烘焙工坊", "address": "铜山新区师范大学步行街南头向东苏宁购物对面（同昌西路）", "phone": "0516-83500860", "open_time": "周一至周日 08:30-21:30", "longitude": 117.182113, "latitude": 34.189375}

http://xz.meituan.com/meishi/99331554/

{"name": "韩千炉自助烤肉火锅", "address": "文亭街文亭金座二层", "phone": "0516-85601338", "open_time": "周一至周日 午市 11:00-14:30 晚市 17:00-22:00  非营业时段 2018-02-15至2018-02-15 全天", "longitude": 117.1844, "latitude": 34.2612}

http://xz.meituan.com/meishi/90694729/

{"name": "睢宁卷皮（邳州分店）", "address": "邳州市邳州四中北门东50米路南", "phone": "18762264979", "open_time": "", "longitude": 117.965003, "latitude": 34.326858}

http://xz.meituan.com/meishi/74275198/

{"name": "秦云老太婆摊摊面（富国街店）", "address": "泉山区富国街眼科医院正对面", "phone": "0516-69919813", "open_time": "周一至周日 07:00-21:30  非营业时段 2019-02-04至2019-02-10 全天", "longitude": 117.1846, "latitude": 34.265954}

http://xz.meituan.com/meishi/96866757/

{"name": "漾漾好四云奶盖贡茶（彭城一号店）", "address": "鼓楼区中山北路彭城一号北门入口处（银座影城旁）", "phone": "18115720750", "open_time": "非营业时段 2018-02-15至2018-02-15 全天", "longitude": 117.187683, "latitude": 34.268853}

http://xz.meituan.com/meishi/92501770/

{"name": "夏家臭豆腐（富国街店）", "address": "泉山区富国街老地方北20米", "phone": "18012005773", "open_time": "", "longitude": 117.182739, "latitude": 34.265678}

http://xz.meituan.com/meishi/158689438/

{"name": "方燕烤猪蹄（金地店）", "address": "鼓楼区中山北路8号金地云街中部北侧", "phone": "18705213053", "open_time": "周一至周日 11:00-22:00", "longitude": 117.186231, "latitude": 34.268795}

http://xz.meituan.com/meishi/110630126/

{"name": "外婆老灶（铜山万达店）", "address": "铜山新区万达广场3楼3001商铺", "phone": "0516-83915988", "open_time": "非营业时段 2018-02-15至2018-02-15 14:00-24:00", "longitude": 117.188412, "latitude": 34.192176}

http://xz.meituan.com/meishi/90848493/

{"name": "陈阿姨的店", "address": "鼓楼区建国西路段庄菜市场内", "phone": "15705204967", "open_time": "周一至周日 04:00-19:00", "longitude": 117.162002, "latitude": 34.257934}

http://xz.meituan.com/meishi/101235853/

{"name": "久贺日式炭火烤肉（云龙万达店）", "address": "云龙区云龙万达北街地下停车场入口正对面（欢乐牧场马路北侧）", "phone": "18136049684", "open_time": "周一至周日 10:00-21:30", "longitude": 117.244953, "latitude": 34.254195}

http://xz.meituan.com/meishi/83818347/

{"name": "楊国福麻辣烫（香港街一店）", "address": "香港街海阔天空KTV北50米", "phone": "14769777799", "open_time": "", "longitude": 116.936951, "latitude": 34.732257}

********第16页*********http://xz.meituan.com/meishi/pn16/[{'name': 'N多寿司（锦绣茗都店）', 'ID': 156628270}, {'name': '车妈妈黄花牛肉手擀面（绿地店）', 'ID': 79984657}, {'name': '南京煎饼果子', 'ID': 96604240}, {'name': '牛魔王烤饼·肉筋（福顺路一中店）', 'ID': 78191543}, {'name': '陈麻婆川式面品', 'ID': 90567075}, {'name': '蟹先生', 'ID': 118015080}, {'name': '四川香天下火锅（彭城壹号店）', 'ID': 96898090}, {'name': '绿健鲜奶吧（万达百货店）', 'ID': 99889701}, {'name': '二妮菜煎饼（风尚米兰店）', 'ID': 97120998}, {'name': '板烧厨房', 'ID': 153651512}, {'name': '老翟板面', 'ID': 93802764}, {'name': '一条古法酸菜鱼（古法酸菜鱼）', 'ID': 92714117}, {'name': '杨国福麻辣烫（万达百货店）', 'ID': 95939091}, {'name': '蜜雪冰城', 'ID': 51156877}, {'name': '阿龙家鸡汤馆（新区店）', 'ID': 109499619}, {'name': '潮牌排骨（金地店）', 'ID': 110435320}, {'name': '刺果果', 'ID': 158770126}, {'name': '正新鸡排（睢宁万象店）', 'ID': 102528711}, {'name': '雪冠牛排', 'ID': 157274038}, {'name': '郭少爷尖椒辣子鸡（万达百货店）', 'ID': 99685274}, {'name': '57度湘（苏宁广场店）', 'ID': 150291162}, {'name': '正新鸡排（沛县店）', 'ID': 92339101}, {'name': '漫烤鱼（1818店）', 'ID': 93108525}, {'name': '秦之味面馆', 'ID': 74114867}, {'name': '小牛哈尼章鱼水煎肉（万达店）', 'ID': 100282763}, {'name': '李先森脆皮鸡烤肉拌饭（建邺路总店）', 'ID': 93764885}, {'name': '乐事多炸鸡汉堡（新东店）', 'ID': 93944060}, {'name': '鹅货饿人锅屋（民祥大厦店）', 'ID': 99290875}, {'name': '0048香辣虾（铜山万达店）', 'ID': 154374639}, {'name': '乐滋贝尔', 'ID': 71753357}, {'name': '粤来越牛潮汕牛肉火锅（苏宁店）', 'ID': 158673259}, {'name': '老锅屋单人地锅（华地街店）', 'ID': 84624057}]

http://xz.meituan.com/meishi/156628270/

{"name": "N多寿司（锦绣茗都店）", "address": "鼓楼区解放路锦绣茗都公交车站旁", "phone": "15162255686", "open_time": "周一至周日 09:30-21:30", "longitude": 117.19125, "latitude": 34.265549}

http://xz.meituan.com/meishi/79984657/

{"name": "车妈妈黄花牛肉手擀面（绿地店）", "address": "云龙区黄山街道汉景大道171号教堂东200米老翟板面西隔壁", "phone": "18361320787", "open_time": "周一至周日 11:00-20:30  非营业时段 2018-02-14至2018-02-22 全天", "longitude": 117.249902, "latitude": 34.246668}

http://xz.meituan.com/meishi/96604240/

{"name": "南京煎饼果子", "address": "新沂市金三角小吃街贼难喝奶茶东十米（天府砂锅对面）", "phone": "18451569717/13775952422", "open_time": "", "longitude": 118.354819, "latitude": 34.372377}

http://xz.meituan.com/meishi/78191543/

{"name": "牛魔王烤饼·肉筋（福顺路一中店）", "address": "鼓楼区福顺路一品飘香南20米", "phone": "18051922220", "open_time": "", "longitude": 117.182661, "latitude": 34.26762}

http://xz.meituan.com/meishi/90567075/

{"name": "陈麻婆川式面品", "address": "鼓楼区彭城一号4号楼一层（食全石美对面）", "phone": "0516-85931688", "open_time": "周一至周日 10:00-22:00", "longitude": 117.188128, "latitude": 34.26814}

http://xz.meituan.com/meishi/118015080/

{"name": "蟹先生", "address": "银杏大道新苏购物中心5楼", "phone": "15862486563", "open_time": "周一至周日 10:00-21:30", "longitude": 117.979333, "latitude": 34.328533}

http://xz.meituan.com/meishi/96898090/

{"name": "四川香天下火锅（彭城壹号店）", "address": "鼓楼区中山北路彭城壹号1号楼4层（屈臣氏楼上）", "phone": "0516-83829777", "open_time": "周一至周日 10:00-02:00  非营业时段 2018-02-16至2018-02-16 全天", "longitude": 117.18789, "latitude": 34.267679}

http://xz.meituan.com/meishi/99889701/

{"name": "绿健鲜奶吧（万达百货店）", "address": "云龙区和平大道58号万达百货3层", "phone": "0516-87877388", "open_time": "", "longitude": 117.245243, "latitude": 34.253033}

http://xz.meituan.com/meishi/97120998/

{"name": "二妮菜煎饼（风尚米兰店）", "address": "风尚路风尚米兰（鼓楼晶典正对面）", "phone": "15052007324", "open_time": "周一至周日 08:00-21:00", "longitude": 117.189417, "latitude": 34.28123}

http://xz.meituan.com/meishi/153651512/

{"name": "板烧厨房", "address": "铜山新区万达广场7号门南侧万达金街8#140号", "phone": "18552880669", "open_time": "周一至周日 10:00-22:00", "longitude": 117.187351, "latitude": 34.191354}

http://xz.meituan.com/meishi/93802764/

{"name": "老翟板面", "address": "新沂市幸福路2幢6室", "phone": "13952282519", "open_time": "周一至周日 08:30-22:00", "longitude": 118.351199, "latitude": 34.367727}

http://xz.meituan.com/meishi/92714117/

{"name": "一条古法酸菜鱼（古法酸菜鱼）", "address": "鼓楼区洪学巷彭城一号3号楼2楼（DQ楼上）", "phone": "0516-83735656", "open_time": "非营业时段 2018-02-15至2018-02-15 全天", "longitude": 117.188175, "latitude": 34.268092}

http://xz.meituan.com/meishi/95939091/

{"name": "杨国福麻辣烫（万达百货店）", "address": "云龙区和平大道58号万达百货万达金街D区1层", "phone": "14752263334", "open_time": "周一至周日 10:00-21:00", "longitude": 117.245243, "latitude": 34.253033}

http://xz.meituan.com/meishi/51156877/

{"name": "蜜雪冰城", "address": "邳州市人民路宏大财富中心爱尚火锅楼下（耐克店北侧）", "phone": "18737820110", "open_time": "周一至周日 10:00-22:00", "longitude": 117.963009, "latitude": 34.31011}

http://xz.meituan.com/meishi/109499619/

{"name": "阿龙家鸡汤馆（新区店）", "address": "铜山新区学苑路1-7号", "phone": "15190675927", "open_time": "", "longitude": 117.192011, "latitude": 34.199989}

http://xz.meituan.com/meishi/110435320/

{"name": "潮牌排骨（金地店）", "address": "鼓楼区金地商都东门商业街", "phone": "18252433935", "open_time": "非营业时段 2018-02-15至2018-02-16 全天", "longitude": 117.187174, "latitude": 34.268391}

http://xz.meituan.com/meishi/158770126/

{"name": "刺果果", "address": "鼓楼区1818美食广场1楼电梯口处", "phone": "13697080038/18952205845", "open_time": "周一至周五 09:30-21:30  周六,周日 09:30-22:00", "longitude": 117.187267, "latitude": 34.270405}

http://xz.meituan.com/meishi/102528711/

{"name": "正新鸡排（睢宁万象店）", "address": "睢宁万象天地一楼台北纯K电梯口向南10米（老凤祥）", "phone": "18852267525/15221488988", "open_time": "周一至周日 09:00-21:30", "longitude": 117.94934, "latitude": 33.901988}

http://xz.meituan.com/meishi/157274038/

{"name": "雪冠牛排", "address": "鼓楼区苏宁广场5楼504", "phone": "0516-81006698", "open_time": "周一至周日 11:00-14:30 17:00-21:00", "longitude": 117.188488, "latitude": 34.265611}

http://xz.meituan.com/meishi/99685274/

{"name": "郭少爷尖椒辣子鸡（万达百货店）", "address": "云龙区和平大道58号万达百货3层", "phone": "0516-83808966", "open_time": "周一至周日 11:00-20:30", "longitude": 117.245243, "latitude": 34.253033}

http://xz.meituan.com/meishi/150291162/

{"name": "57度湘（苏宁广场店）", "address": "鼓楼区彭城路苏宁广场内环4楼", "phone": "0516-66885757", "open_time": "周一至周日 11:00-21:30  非营业时段 2018-02-15至2018-02-15 14:00-24:00", "longitude": 117.188614, "latitude": 34.26557}

http://xz.meituan.com/meishi/92339101/

{"name": "正新鸡排（沛县店）", "address": "人民市场中英街金鹰北门", "phone": "13775912723", "open_time": "", "longitude": 116.93485, "latitude": 34.732112}

http://xz.meituan.com/meishi/93108525/

{"name": "漫烤鱼（1818店）", "address": "鼓楼区夹河东街1818美食广场负一楼（南入口旁）", "phone": "0516-85865888", "open_time": "周五至周日 11:00-15:00 16:30-21:30  周一至周四 11:00-14:00 16:30-21:00", "longitude": 117.187335, "latitude": 34.269718}

http://xz.meituan.com/meishi/74114867/

{"name": "秦之味面馆", "address": "鼓楼区中枢街格林豪泰东20米", "phone": "18260737175", "open_time": "周一至周日 09:00-21:00", "longitude": 117.182016, "latitude": 34.262485}

http://xz.meituan.com/meishi/100282763/

{"name": "小牛哈尼章鱼水煎肉（万达店）", "address": "铜山新区北京路19号万达广场三楼", "phone": "0516-83095555", "open_time": "周一至周日 07:30-14:00 16:30-21:30", "longitude": 117.187895, "latitude": 34.192565}

http://xz.meituan.com/meishi/93764885/

{"name": "李先森脆皮鸡烤肉拌饭（建邺路总店）", "address": "建邺路与钟吾路交界西南角（德克士对面）", "phone": "13775952053", "open_time": "周一至周日 11:00-21:00", "longitude": 118.351346, "latitude": 34.364157}

http://xz.meituan.com/meishi/93944060/

{"name": "乐事多炸鸡汉堡（新东店）", "address": "新沂市新东路悠客网吧旁", "phone": "18552826915", "open_time": "周一至周日 08:00-22:30", "longitude": 118.367992, "latitude": 34.374591}

http://xz.meituan.com/meishi/99290875/

{"name": "鹅货饿人锅屋（民祥大厦店）", "address": "云龙万达广场西侧民祥大厦二楼", "phone": "0516-83666678/83666611", "open_time": "周一至周日 11:30-23:00  非营业时段 2018-02-15至2018-02-17 全天", "longitude": 117.243354, "latitude": 34.254209}

http://xz.meituan.com/meishi/154374639/

{"name": "0048香辣虾（铜山万达店）", "address": "铜山新区铜山万达金街二楼247（7号门隔壁右边）", "phone": "13225222557", "open_time": "周一至周日 10:30-22:30", "longitude": 117.187192, "latitude": 34.191821}

http://xz.meituan.com/meishi/71753357/

{"name": "乐滋贝尔", "address": "泉山区湖滨新村公交站台6-8号（原交通银行）", "phone": "0516-85822589", "open_time": "周一至周日 07:30-22:00", "longitude": 117.151642, "latitude": 34.254331}

http://xz.meituan.com/meishi/158673259/

{"name": "粤来越牛潮汕牛肉火锅（苏宁店）", "address": "鼓楼区彭城路苏宁广场四楼410号", "phone": "0516-81008088", "open_time": "周一至周日 10:00-14:00 16:00-21:00", "longitude": 117.188488, "latitude": 34.265611}

http://xz.meituan.com/meishi/84624057/

{"name": "老锅屋单人地锅（华地街店）", "address": "丰县华地街北头146号", "phone": "15365409780", "open_time": "周一至周日 09:00-21:00", "longitude": 116.605674, "latitude": 34.698233}

********第17页*********http://xz.meituan.com/meishi/pn17/[{'name': '鸡脚饭（铜山万达店）', 'ID': 157154950}, {'name': 'N多寿司', 'ID': 93739692}, {'name': '少年锦时', 'ID': 75661716}, {'name': '金诺郎海鲜火锅自助烤肉（淮海东路店）', 'ID': 153641965}, {'name': '鸡脚饭（奥特莱斯店）', 'ID': 118403568}, {'name': '米纸越南小馆（苏宁店）', 'ID': 126270737}, {'name': '延庆观炸鸡（富国街店）', 'ID': 92158545}, {'name': '老北京炸鸡腿（金鹰南门店）', 'ID': 87867538}, {'name': '隐归制面（金地店）', 'ID': 106504861}, {'name': '乐事多炸鸡汉堡（宣武二店）', 'ID': 91846839}, {'name': '面条康陕西面馆（新沂店）', 'ID': 118034915}, {'name': '张记北京烤鸭', 'ID': 109326659}, {'name': '二妮菜煎饼（四院店）', 'ID': 92866425}, {'name': '忘不了酸菜鱼', 'ID': 93692401}, {'name': '豚骨王面', 'ID': 92297652}]

http://xz.meituan.com/meishi/157154950/

{"name": "鸡脚饭（铜山万达店）", "address": "铜山新区铜山万达金街南门3号门往西20米", "phone": "15062186744/18361256639", "open_time": "周一至周日 10:30-21:30  非营业时段 2018-02-15至2018-02-16 全天", "longitude": 117.188048, "latitude": 34.189115}

http://xz.meituan.com/meishi/93739692/

{"name": "N多寿司", "address": "泉山区建国路西关大润发北门对面站台后", "phone": "15862150929", "open_time": "周一至周日 早市 09:00-21:00", "longitude": 117.164875, "latitude": 34.258616}

http://xz.meituan.com/meishi/75661716/

{"name": "少年锦时", "address": "邳州市民主路宏大财富中心大圆盘负一层", "phone": "13626152165", "open_time": "周一至周日 10:00-21:00", "longitude": 117.961313, "latitude": 34.310719}

http://xz.meituan.com/meishi/153641965/

{"name": "金诺郎海鲜火锅自助烤肉（淮海东路店）", "address": "鼓楼区淮海东路71号医药大厦二楼（中山堂对面）", "phone": "17712006652", "open_time": "非营业时段 2018-02-15至2018-02-15 全天", "longitude": 117.191054, "latitude": 34.264114}

http://xz.meituan.com/meishi/118403568/

{"name": "鸡脚饭（奥特莱斯店）", "address": "鼓楼区奥特莱斯4楼", "phone": "18151308530", "open_time": "周一至周日 10:30-21:00", "longitude": 117.272333, "latitude": 34.268827}

http://xz.meituan.com/meishi/126270737/

{"name": "米纸越南小馆（苏宁店）", "address": "鼓楼区苏宁广场4F427号", "phone": "0516-66698555", "open_time": "周一至周日 09:30-22:00", "longitude": 117.188302, "latitude": 34.265504}

http://xz.meituan.com/meishi/92158545/

{"name": "延庆观炸鸡（富国街店）", "address": "泉山区富国街十字路口红绿灯向北20米（爱客来超市隔壁）", "phone": "15162127636", "open_time": "周一至周日 10:30-21:00", "longitude": 117.183047, "latitude": 34.266527}

http://xz.meituan.com/meishi/87867538/

{"name": "老北京炸鸡腿（金鹰南门店）", "address": "沛县金鹰南门福六家六对面第一家", "phone": "15052065209", "open_time": "周一至周日 09:00-21:00", "longitude": 116.934278, "latitude": 34.731284}

http://xz.meituan.com/meishi/106504861/

{"name": "隐归制面（金地店）", "address": "鼓楼区金地商都东门向北30米", "phone": "18361220583", "open_time": "", "longitude": 117.187016, "latitude": 34.268031}

http://xz.meituan.com/meishi/91846839/

{"name": "乐事多炸鸡汉堡（宣武二店）", "address": "鼓楼区青年路百惠家美时东门南交叉路口", "phone": "13814412211", "open_time": "", "longitude": 117.198794, "latitude": 34.262443}

http://xz.meituan.com/meishi/118034915/

{"name": "面条康陕西面馆（新沂店）", "address": "南京路段家巷鸿基天城北侧门面房懒人凉皮东侧", "phone": "0516-82802066", "open_time": "周一至周日 09:00-21:00", "longitude": 118.355865, "latitude": 34.371596}

http://xz.meituan.com/meishi/109326659/

{"name": "张记北京烤鸭", "address": "铜山新区北京北路铜山万达南区三楼", "phone": "13805184529", "open_time": "周一至周日 09:00-21:00", "longitude": 117.188205, "latitude": 34.192029}

http://xz.meituan.com/meishi/92866425/

{"name": "二妮菜煎饼（四院店）", "address": "泉山区四院北门正对面，农业银行隔壁", "phone": "0516-61660888", "open_time": "周一至周日 08:00-24:00", "longitude": 117.195955, "latitude": 34.242926}

http://xz.meituan.com/meishi/93692401/

{"name": "忘不了酸菜鱼", "address": "青年路与公园路交叉口向西20米（乐事多西隔壁）", "phone": "15951598736", "open_time": "周一至周日 10:00-19:30", "longitude": 118.346637, "latitude": 34.373337}

http://xz.meituan.com/meishi/92297652/

{"name": "豚骨王面", "address": "新沂市建邺路圣丰小区南门对过", "phone": "18121758518", "open_time": "周一至周日 午市 09:00-21:00", "longitude": 118.350749, "latitude": 34.364221}

********第18页*********http://xz.meituan.com/meishi/pn18/[]

